[{"id":1,"name":"1001 Nights","address":"კოტე აფხაზის 9, თბილისი","district":"old_town","lat":41.71896,"lon":44.78645,"rating":7.4},{"id":2,"name":"1991","address":"Shanidze 11, თბილისი","district":"old_town","lat":41.70712,"lon":44.78094,"rating":9.2},{"id":3,"name":"2 Pizza","address":"12 Bakhtrioni Street , თბილისი","district":"saburtalo","lat":41.72096,"lon":44.77192,"rating":8.4},{"id":4,"name":"3 შაურმა ისანი","address":"MRPR+MMH Tbilisi, თბილისი","district":"tbilisi","lat":41.68669,"lon":44.84173,"rating":8.8},{"id":5,"name":"30Bubbles","address":"25 Aleksandr Pushkin St, თბილისი","district":"old_town","lat":41.69557,"lon":44.80264,"rating":9.0},{"id":6,"name":"33 Tantuni & Doner","address":"71 Davit Aghmashenebeli Ave, Tbilisi","district":"old_town","lat":41.70785,"lon":44.7992,"rating":8.8},{"id":7,"name":"4 Brother's Restaurant","address":"2 Chabukiani Street, Tbilisi","district":"saburtalo","lat":41.72348,"lon":44.77622,"rating":8.6},{"id":8,"name":"4 Guys Burger Aghmashenebeli","address":"D. Aghmashenebeli Ave, N 189, თბილისი","district":"old_town","lat":41.70469,"lon":44.80173,"rating":8.8},{"id":9,"name":"4 Guys Burger Isani","address":"MRQM+55G, თბილისი","district":"tbilisi","lat":41.68794,"lon":44.83295,"rating":8.8},{"id":10,"name":"808","address":"4 Pavle Ingorokva St, Tbilisi","district":"sololaki","lat":41.69268,"lon":44.79799,"rating":9.6},{"id":11,"name":"Acharulebi Lagidzeze","address":"24 Shota Rustaveli Ave, Tbilisi","district":"old_town","lat":41.70027,"lon":44.79576,"rating":8.2},{"id":12,"name":"Adrenaline","address":"30 Zviad Gamsakhurdia Named Right Bank, თბილისი","district":"old_town","lat":41.70033,"lon":44.80272,"rating":8.8},{"id":13,"name":"Ajisai Vake Restaurant","address":"60 Zakaria Paliashvili Street, Tbilisi, თბილისი","district":"vake","lat":41.70874,"lon":44.76416,"rating":null},{"id":14,"name":"აკირა- იაპონური რამენი","address":"39 Abashidze Street, თბილისი","district":"vake","lat":41.70814,"lon":44.76289,"rating":9.8},{"id":15,"name":"Akita","address":"24 Irakli Abashidze Street, Tbilisi","district":"vake","lat":41.70721,"lon":44.76782,"rating":9.0},{"id":16,"name":"Siraj Asian restaurant","address":"7 Vazha Phavela Avenue, თბილისი","district":"saburtalo","lat":41.72787,"lon":44.76557,"rating":7.8},{"id":17,"name":"Al Madina Cave Halal Restaurant","address":"19 ALEXANDER PUSHKIN STREET, თბილისი","district":"sololaki","lat":41.69496,"lon":44.80262,"rating":8.4},{"id":18,"name":"Al Madina","address":"1 Gia Tetelashvili Street, Tbilisi","district":"old_town","lat":41.71083,"lon":44.79521,"rating":8.2},{"id":19,"name":"Al Mecca Indian&Arabic Restaurant","address":"Gia telelashvili 02 Tbilisi, Tbilisi","district":"saburtalo","lat":41.77246,"lon":44.76455,"rating":7.8},{"id":20,"name":"Alani","address":"გორგასლის 1, თბილისი","district":"isani","lat":41.67831,"lon":44.8249,"rating":8.6},{"id":21,"name":"Almaty Cafe","address":"დ. უზნაძის ქ. 29, Tbilisi","district":"old_town","lat":41.70415,"lon":44.80046,"rating":9.2},{"id":22,"name":"Alubali","address":"6 G. Akhvlediani Street, Tbilisi","district":"old_town","lat":41.70503,"lon":44.79042,"rating":9.0},{"id":23,"name":"Amai Bazari Orbeliani","address":"bazari orbeliani, თბილისი","district":"old_town","lat":41.69781,"lon":44.80417,"rating":9.4},{"id":24,"name":"Ambrosiano Vera","address":"23 Tamar Chovelidze St, თბილისი","district":"old_town","lat":41.70486,"lon":44.78585,"rating":9.6},{"id":25,"name":"Andre","address":"Kazbegi Ave 8a, თბილისი","district":"saburtalo","lat":41.72593,"lon":44.76518,"rating":9.4},{"id":26,"name":"ანკარა სთაილ","address":"116 Davit Agmashenebeli ave, თბილისი","district":"old_town","lat":41.71144,"lon":44.79543,"rating":9.2},{"id":27,"name":"Anso","address":"6 Rapiel Eristavi St, Tbilisi","district":"vake","lat":41.70854,"lon":44.77509,"rating":8.8},{"id":28,"name":"Area NY Pizza","address":"76 Otar Oniashvili str., თბილისი","district":"saburtalo","lat":41.73078,"lon":44.75892,"rating":9.0},{"id":29,"name":"Ashkara Falafel","address":"9 0105 Mikheil Lermontovi St, Tbilisi, Tbilisi","district":"sololaki","lat":41.69142,"lon":44.80104,"rating":9.0},{"id":30,"name":"Ashkara Falafel Saburtalo","address":"Vazha-pshavela ave 27, Tbilisi","district":"saburtalo","lat":41.72726,"lon":44.75928,"rating":9.2},{"id":31,"name":"Asi Khinkali","address":"19 Ushangi Chkheidze street, Tbilisi","district":"old_town","lat":41.70933,"lon":44.79261,"rating":7.8},{"id":32,"name":"Asian Alley","address":"10 Viktor Dolidze, თბილისი","district":"vake","lat":41.71638,"lon":44.77081,"rating":9.2},{"id":33,"name":"Asian Alley Vake","address":"12 Ilia Chavchavadze Avenue, თბილისი","district":"vake","lat":41.70919,"lon":44.77681,"rating":9.2},{"id":34,"name":"Ajisai","address":"6 Shalva Nutsubidze Street, Tbilisi","district":"saburtalo","lat":41.72987,"lon":44.75743,"rating":9.2},{"id":35,"name":"AT Bakelab Isani","address":"MRQR+2MP, ვ. ჩაჩავას ქუჩა, Tbilisi, თბილისი","district":"isani","lat":41.68773,"lon":44.84148,"rating":9.0},{"id":36,"name":"Atsma Cooked By Shemomechama","address":"shemomechama saburtalo, თბილისი","district":"saburtalo","lat":41.72656,"lon":44.76008,"rating":9.2},{"id":37,"name":"Atsma Cooked By Shemomechama Meidani","address":"9/11 Samghebro St, თბილისი","district":"old_town","lat":41.68925,"lon":44.80935,"rating":8.6},{"id":38,"name":"Atsma Cooked By Shemomechama Vake","address":"PQ4F+GC Tbilisi, თბილისი","district":"tbilisi","lat":41.70631,"lon":44.77356,"rating":9.2},{"id":39,"name":"August Aghmashenebeli","address":"Aghmashenebeli Ave 119, თბილისი","district":"old_town","lat":41.71127,"lon":44.79643,"rating":8.4},{"id":40,"name":"August Chavchavadze","address":"Chavchavadze Ave 16, თბილისი","district":"vake","lat":41.70898,"lon":44.77537,"rating":9.2},{"id":41,"name":"August Dadiani","address":"PR93+64 Tbilisi, Tbilisi","district":"tbilisi","lat":41.71806,"lon":44.80281,"rating":8.0},{"id":42,"name":"August Kazbegi","address":"Kazbegi Ave 6, Tbilisi","district":"saburtalo","lat":41.72602,"lon":44.76622,"rating":9.4},{"id":43,"name":"August Nadzaladevi","address":"ეკა ბეჟანიშვილის ქუჩა 4, Tbilisi","district":"nadzaladevi","lat":41.74646,"lon":44.79015,"rating":8.6},{"id":44,"name":"August Tsereteli","address":"Tsereteli Ave 55, თბილისი","district":"chugureti","lat":41.73084,"lon":44.78675,"rating":9.6},{"id":45,"name":"Augustus","address":"Agmashenebeli 150, Tbilisi","district":"old_town","lat":41.71764,"lon":44.79112,"rating":9.4},{"id":46,"name":"Aut Vera","address":"32 Mikheil Zandukeli StT&apos;bilisi 0106, Tbilisi","district":"old_town","lat":41.7039,"lon":44.78488,"rating":9.4},{"id":47,"name":"Avlabris Shaurma","address":"Dedoflistskaro st.15, Tbilisi","district":"avlabari","lat":41.69295,"lon":44.82166,"rating":8.8},{"id":48,"name":"B&B","address":"Z. Paliashvili 55  , Tbilisi","district":"vake","lat":41.70947,"lon":44.76084,"rating":9.0},{"id":49,"name":"B Back","address":"37a petre kavtaradze Street, Tbilisi","district":"saburtalo","lat":41.72095,"lon":44.72554,"rating":8.6},{"id":50,"name":"Babus Mtsvadi","address":"14 Ivane Machabeli St, თბილისი","district":"sololaki","lat":41.69061,"lon":44.80024,"rating":8.6},{"id":51,"name":"Bacanos","address":"13 Bakhtrioni Street, თბილისი","district":"saburtalo","lat":41.72076,"lon":44.76759,"rating":9.6},{"id":52,"name":"ბაჩიატა","address":"82 Barnovi Street, თბილისი","district":"vake","lat":41.70696,"lon":44.77705,"rating":9.2},{"id":53,"name":"ბექერაი 17","address":"17 Davit Gamrekeli St, თბილისი","district":"saburtalo","lat":41.72503,"lon":44.76875,"rating":null},{"id":54,"name":"Baho","address":"41 Kazbegi Ave , თბილისი","district":"saburtalo","lat":41.72466,"lon":44.74574,"rating":8.8},{"id":55,"name":"The Baked Potato","address":"6 Zaza Panaskertel-Tsitsishvili St, თბილისი","district":"vake","lat":41.71945,"lon":44.76412,"rating":9.4},{"id":56,"name":"Bakerline","address":"78a Vaja-Pshavela Avenue, Tbilisi","district":"saburtalo","lat":41.72312,"lon":44.73089,"rating":9.2},{"id":57,"name":"Bakery Corner","address":"Spiridon Kedias St 10, თბილისი","district":"chugureti","lat":41.7332,"lon":44.78707,"rating":8.4},{"id":58,"name":"Bakery Mari","address":"Dighomi Massive III Quarter , N3 QQ4G+84G., თბილისი","district":"saburtalo","lat":41.75581,"lon":44.77533,"rating":8.8},{"id":59,"name":"Bakery Racha","address":"49 Simon Kandelaki, Tbilisi","district":"saburtalo","lat":41.73064,"lon":44.76133,"rating":9.2},{"id":60,"name":"Bakery & Salad","address":"n166 Otar Chiladze Street, T&apos;bilisi, თბილისი","district":"saburtalo","lat":41.72761,"lon":44.76155,"rating":9.6},{"id":61,"name":"Balance Express","address":"22 Ilia Chavchavadze Avenue, Tbilisi","district":"vake","lat":41.70864,"lon":44.77421,"rating":9.4},{"id":62,"name":"Bangkok Galleria","address":"2/4 Shota Rustaveli Ave, Tbilisi","district":"sololaki","lat":41.69437,"lon":44.79984,"rating":9.0},{"id":63,"name":"Bangkok Isani","address":"47 Atskuri St, Tbilisi","district":"isani","lat":41.6882,"lon":44.84045,"rating":9.2},{"id":64,"name":"Bangkok","address":"3 Tandzia St, Tbilisi","district":"saburtalo","lat":41.72382,"lon":44.75939,"rating":9.0},{"id":65,"name":"Basilico","address":"12 Bakhtrioni Street, Tbilisi","district":"saburtalo","lat":41.72096,"lon":44.77192,"rating":8.6},{"id":66,"name":"DRO Abashidze","address":"42 Abashidze Street , Tbilisi","district":"vake","lat":41.70772,"lon":44.76339,"rating":9.2},{"id":67,"name":"Beer Time","address":"12b Alexander Kazbegi Ave, თბილისი","district":"saburtalo","lat":41.72551,"lon":44.76254,"rating":9.0},{"id":68,"name":"Begheli","address":"4b Tamarashvili st, თბილისი","district":"saburtalo","lat":41.72219,"lon":44.74461,"rating":9.0},{"id":69,"name":"Begimoty","address":"3 Akhalubani St, Tbilisi 0102, თბილისი","district":"isani","lat":41.7002,"lon":44.81751,"rating":9.0},{"id":70,"name":"Beirut Pasha","address":"10a David Guramishvili Ave, Tbilisi","district":"nadzaladevi","lat":41.75411,"lon":44.78841,"rating":6.8},{"id":71,"name":"Beirut Saj Restaurant","address":"David Agmashenebeli Street 109, თბილისი","district":"old_town","lat":41.70359,"lon":44.80273,"rating":8.8},{"id":72,"name":"Bellini","address":"Paliashvili 15, Tbilisi","district":"vake","lat":41.70825,"lon":44.77465,"rating":null},{"id":73,"name":"Berlin Shawarma","address":"16 Mose Gogiberidze St, თბილისი","district":"old_town","lat":41.70383,"lon":44.80558,"rating":8.4},{"id":74,"name":"Berytus","address":"16 Ilia Chavchavadze Avenue, Tbilisi","district":"vake","lat":41.70898,"lon":44.77537,"rating":9.6},{"id":75,"name":"Biang Biang Tbilisi","address":"11 Constitution Street, თბილისი","district":"old_town","lat":41.71641,"lon":44.79764,"rating":null},{"id":76,"name":"Big Sam's Saburtalo","address":"2 Aleksandre Kazbegi avenue, თბილისი","district":"saburtalo","lat":41.72612,"lon":44.76733,"rating":9.0},{"id":77,"name":"Big Sam’s Galleria Tbilisi","address":"2/4 Shota Rustaveli Ave, თბილისი","district":"sololaki","lat":41.69437,"lon":44.79984,"rating":9.4},{"id":78,"name":"ბიგ სემ მოსაშვილი","address":"24 Mosashvili Street, თბილისი","district":"vake","lat":41.71045,"lon":44.75507,"rating":9.4},{"id":79,"name":"Bigger Bite","address":"Tsotne Dadiani St 168, Tbilisi","district":"nadzaladevi","lat":41.74857,"lon":44.79115,"rating":9.2},{"id":80,"name":"Bikentias Sakababe","address":"39a  Rafael Agladze St, თბილისი","district":"chugureti","lat":41.72839,"lon":44.78376,"rating":9.4},{"id":81,"name":"Billy Burke’s Irish Pub","address":"77 Merab Kostava St, თბილისი","district":"saburtalo","lat":41.72463,"lon":44.77707,"rating":9.2},{"id":82,"name":"Bistro By Gastronome","address":"1 Petre Kavtaradze Street, თბილისი","district":"saburtalo","lat":41.72454,"lon":44.73885,"rating":9.0},{"id":83,"name":"Bite Me","address":"2 Ramaz Chkhikvadze St, თბილისი","district":"saburtalo","lat":41.72826,"lon":44.73232,"rating":9.0},{"id":84,"name":"Black Shawarma","address":"88 Eros Manjgaladze St, Tbilisi","district":"nadzaladevi","lat":41.73207,"lon":44.79788,"rating":8.8},{"id":85,"name":"ბლინი","address":"13 Akaki Tsereteli Ave, თბილისი","district":"chugureti","lat":41.73345,"lon":44.78243,"rating":9.2},{"id":86,"name":"Bluzz Shawarma","address":"Tsotne Dadiani ave. 118, თბილისი","district":"tbilisi","lat":41.7337,"lon":44.79696,"rating":8.8},{"id":87,"name":"BO Bubble Tea","address":"Mose Gogiberidze 6, თბილისი","district":"old_town","lat":41.70319,"lon":44.80493,"rating":9.4},{"id":88,"name":"Boncafe","address":"2 Nekerchkhali St, თბილისი","district":"saburtalo","lat":41.74014,"lon":44.75305,"rating":9.4},{"id":89,"name":"Bonny Bistro","address":"Paliashvili 82, თბილისი","district":"vake","lat":41.70917,"lon":44.75908,"rating":9.6},{"id":90,"name":"Bootlegger Bar","address":"n15 Davit Gamrekeli St, თბილისი","district":"saburtalo","lat":41.72364,"lon":44.76934,"rating":8.2},{"id":91,"name":"Borsh","address":"Napareuli 3 Street, თბილისი","district":"vake","lat":41.70894,"lon":44.7768,"rating":9.4},{"id":92,"name":"Brauhaus Tiflis","address":"31 Simon Kandelaki St, Tbilisi","district":"saburtalo","lat":41.73091,"lon":44.76386,"rating":9.2},{"id":93,"name":"Hot-Dog Room Vazha-Pshavela","address":"28 Vazha Pshavela Ave, Tbilisi","district":"saburtalo","lat":41.7259,"lon":44.75342,"rating":9.2},{"id":94,"name":"Hot-Dog Room Tsintsadze","address":"sulkhan tsintsadze street 12, თბილისი","district":"saburtalo","lat":41.72188,"lon":44.76982,"rating":9.0},{"id":95,"name":"Breadbar","address":"2b Kipshidze street, Tbilisi","district":"vake","lat":41.71261,"lon":44.75616,"rating":9.0},{"id":96,"name":"Bread House","address":"7 Vakhtang Gorgasali St, Tbilisi","district":"old_town","lat":41.68857,"lon":44.81263,"rating":9.6},{"id":97,"name":"ბულანჟერია ბრეტონი","address":"49 E Ilia chavchavadze ave, თბილისი","district":"vake","lat":41.71128,"lon":44.74436,"rating":9.6},{"id":98,"name":"Breton Boulangerie Chavchavadze","address":"49 E Ilia chavchavadze ave, Tbilisi","district":"vake","lat":41.71128,"lon":44.74436,"rating":9.6},{"id":99,"name":"Brinji","address":"19 Atoneli St, თბილისი","district":"old_town","lat":41.69881,"lon":44.80338,"rating":9.6},{"id":100,"name":"ბრინკს","address":"8 Leo Kiacheli Str, თბილისი","district":"old_town","lat":41.70551,"lon":44.79083,"rating":9.4},{"id":101,"name":"Brisk By Alfredo","address":"31, Irakli Abashidze Street 0179 Tbilisi Georgia, Tbilisi","district":"vake","lat":41.70815,"lon":44.76538,"rating":9.6},{"id":102,"name":"Brunch by Gastronome Abashidze","address":"65/67 Abashidze Street, Tbilisi","district":"vake","lat":41.7088,"lon":44.75672,"rating":9.2},{"id":103,"name":"Brunch by Gastronome Chavchavadze","address":"Chavchavadze Ave. 49d, თბილისი","district":"vake","lat":41.71137,"lon":44.7442,"rating":9.0},{"id":104,"name":"Brunch by Gastronome City Mall","address":"1 Petre Kavtaradze St, თბილისი","district":"saburtalo","lat":41.72454,"lon":44.73885,"rating":9.2},{"id":105,"name":"Brunch by Gastronome Dighomi","address":"27 akaki beliashvili street, Tbilisi","district":"didube","lat":41.76043,"lon":44.78049,"rating":9.2},{"id":106,"name":"Brunch by Gastronome Galleria","address":"2/4 Shota Rustaveli Ave, თბილისი","district":"sololaki","lat":41.69437,"lon":44.79984,"rating":9.2},{"id":107,"name":"Brunch by Gastronome Lisi","address":"Nekerchkhali St. 2, Tbilisi","district":"saburtalo","lat":41.74014,"lon":44.75305,"rating":9.6},{"id":108,"name":"Brunch by Gastronome Saburtalo","address":"22 Vazha Pshavela Ave, Tbilisi","district":"saburtalo","lat":41.72612,"lon":44.75557,"rating":9.2},{"id":109,"name":"Brunch by Gastronome Sololaki","address":"Amaghleba st. 12, Tbilisi","district":"sololaki","lat":41.6897,"lon":44.79513,"rating":9.4},{"id":110,"name":"Brunch & Dine","address":"71a Ivane Javakhishvili St, Tbilisi","district":"old_town","lat":41.71186,"lon":44.80026,"rating":8.8},{"id":111,"name":"Brunchies By Foodgoddess","address":"Paliashvili st. 1, Tbilisi","district":"vake","lat":41.70762,"lon":44.77287,"rating":8.2},{"id":112,"name":"Bruno Burger Bazari Orbeliani","address":"MRX3+2J Tbilisi, თბილისი","district":"tbilisi","lat":41.69756,"lon":44.80406,"rating":8.8},{"id":113,"name":"Bruno Burger Saburtalo","address":"PPFQ+JM5 , თბილისი","district":"tbilisi","lat":41.72401,"lon":44.73923,"rating":9.2},{"id":114,"name":"Bruno Burger Vera","address":"57a Vasil Barnov St, თბილისი","district":"old_town","lat":41.7055,"lon":44.78094,"rating":9.4},{"id":115,"name":"Brut & Breakfast Bar","address":"20 Atoneli St, Tbilisi","district":"old_town","lat":41.69866,"lon":44.80294,"rating":8.8},{"id":116,"name":"Bubble Waffle Factory","address":"20 Anton Purtseladze St, Tbilisi 0105, Tbilisi","district":"old_town","lat":41.69784,"lon":44.80274,"rating":8.8},{"id":117,"name":"Buffalo's Wings & Nuggets Bazari Orbeliani","address":"3a Vekua Street, Tbilis, Tbilisi","district":"old_town","lat":41.69748,"lon":44.80404,"rating":9.2},{"id":118,"name":"Burger Bar Saburtalo","address":"15 Alexander Kazbegi Ave, თბილისი","district":"saburtalo","lat":41.72633,"lon":44.76264,"rating":9.4},{"id":119,"name":"Burger Box by Mugsy","address":"63 Vazha Pshavela Ave, თბილისი","district":"saburtalo","lat":41.72453,"lon":44.73366,"rating":9.0},{"id":120,"name":"Burger Box","address":"62a, Paliashvili , vake, tbilisi , თბილისი","district":"vake","lat":41.70852,"lon":44.76372,"rating":8.2},{"id":121,"name":"Burger Brothers Bazari Orbeliani","address":"3 V. Vekua St, Tbilisi","district":"old_town","lat":41.69748,"lon":44.80404,"rating":8.8},{"id":122,"name":"Burger King Chavchavadze","address":"36a Ilia Chavchavadze Avenue , თბილისი","district":"vake","lat":41.70912,"lon":44.7692,"rating":8.8},{"id":123,"name":"Burger King Galleria Tbilisi","address":"3/4 Rustaveli st, Tbilisi","district":"outer","lat":41.69574,"lon":44.69977,"rating":8.8},{"id":124,"name":"Burger Lions Galleria Tbilisi","address":"რუსთაველის 2/4-გალერია თბილისი , თბილისი","district":"sololaki","lat":41.69488,"lon":44.79976,"rating":9.4},{"id":125,"name":"Burger Lions Vazha Pshavela","address":"ვაჟა-ფშაველას 78ა , თბილისი","district":"saburtalo","lat":41.72539,"lon":44.72642,"rating":9.4},{"id":126,"name":"Burger Paradise","address":"53 Simon Kandelaki St, თბილისი","district":"saburtalo","lat":41.73055,"lon":44.76086,"rating":8.8},{"id":127,"name":"Burger  Prime","address":"148g Agmashenebeli Ave , Tbilisi, 0159, Tbilisi, თბილისი","district":"old_town","lat":41.71625,"lon":44.79214,"rating":null},{"id":128,"name":"Burger Shop","address":"57a Kazbegi St, თბილისი","district":"saburtalo","lat":41.72385,"lon":44.7394,"rating":null},{"id":129,"name":"Burger Space","address":"mtskhetis St N5, Tbilisi","district":"vake","lat":41.70611,"lon":44.77108,"rating":9.6},{"id":130,"name":"BurgerBoss","address":"11b Bakhtrioni St, Tbilisi","district":"saburtalo","lat":41.72088,"lon":44.76916,"rating":8.0},{"id":131,"name":"Burgerebis Saministro Vake","address":"8 Bazaleti St, Tbilisi","district":"vake","lat":41.70758,"lon":44.77281,"rating":9.0},{"id":132,"name":"Burgerology","address":"1/8 Odesa St, თბილისი","district":"saburtalo","lat":41.7337,"lon":44.7668,"rating":7.8},{"id":133,"name":"Buritto & Wok","address":"PPFH+VP7 Tbilisi, თბილისი","district":"tbilisi","lat":41.72466,"lon":44.7293,"rating":8.6},{"id":134,"name":"Café Barbera","address":"I. Chavchavadze Ave N20, Tbilisi","district":"vake","lat":41.71206,"lon":44.73976,"rating":9.4},{"id":135,"name":"Café Gusto","address":"6 Lado Kavsadze Street, თბილისი","district":"vake","lat":41.70937,"lon":44.76182,"rating":null},{"id":136,"name":"Café Prelude","address":"Prelude Cafe, თბილისი","district":"old_town","lat":41.69627,"lon":44.80198,"rating":8.2},{"id":137,"name":"Café Zemeli","address":"24 Solomon Zaldastanishvili St, Tbilisi","district":"old_town","lat":41.70098,"lon":44.78942,"rating":8.6},{"id":138,"name":"Cafe Dila","address":"Isani St, N8, Tbilisi","district":"old_town","lat":41.69095,"lon":44.81463,"rating":9.4},{"id":139,"name":"Cafe Leila","address":"18 Ioane Shavteli St, თბილისი","district":"old_town","lat":41.69548,"lon":44.80644,"rating":9.2},{"id":140,"name":"Cafe Meidan","address":"Samghebro St, N6, Tbilisi","district":"old_town","lat":41.68914,"lon":44.80965,"rating":null},{"id":141,"name":"Cafe Museum Tbilisi","address":"10, Orbeliani Street, Tbilisi","district":"nadzaladevi","lat":41.82714,"lon":44.81512,"rating":9.0},{"id":142,"name":"Book Cafe / Biblusi  Vake","address":"chavchavadze 2, Tbilisi","district":"vake","lat":41.70895,"lon":44.77884,"rating":8.4},{"id":143,"name":"Cafe Rko Bazari Orbeliani","address":"3a Vekua St , Tbilisi","district":"old_town","lat":41.69748,"lon":44.80404,"rating":9.0},{"id":144,"name":"Campus","address":"Vakhtang Chabukiani st. 2, Tbilisi","district":"saburtalo","lat":41.72348,"lon":44.77622,"rating":9.2},{"id":145,"name":"Canape","address":"14, Irakli Abashidze St, Tbilisi","district":"vake","lat":41.70716,"lon":44.7713,"rating":9.4},{"id":146,"name":"Capo","address":"6 Iakob Nikoladze Street, თბილისი","district":"old_town","lat":41.71033,"lon":44.78317,"rating":9.6},{"id":147,"name":"Chacha Time","address":"5 Geronti Kikodze St, თბილისი","district":"sololaki","lat":41.6913,"lon":44.7984,"rating":9.4},{"id":148,"name":"Chais Sakhli Veris Bagshi","address":"M. Kostava st. 37, თბილისი","district":"old_town","lat":41.7075,"lon":44.78782,"rating":9.2},{"id":149,"name":"Champ's Cafe","address":"Tbilisi, Agmashenebeli 150, თბილისი","district":"old_town","lat":41.71764,"lon":44.79112,"rating":9.4},{"id":150,"name":"Cheesefarm","address":"7 Freedom Square, Tbilisi, თბილისი","district":"sololaki","lat":41.69297,"lon":44.80193,"rating":9.4},{"id":151,"name":"Chef Sushi Abashidze","address":"60 I.Abashidze st, თბილისი","district":"vake","lat":41.70823,"lon":44.75869,"rating":9.4},{"id":152,"name":"Chef's Food","address":"Aslanidi 20 Str, Tbilisi","district":"vake","lat":41.71892,"lon":44.78116,"rating":9.4},{"id":153,"name":"Chemo Kargo Nadzaladevi","address":"108 Tsotne Dadiani Street, თბილისი","district":"nadzaladevi","lat":41.73564,"lon":44.79605,"rating":8.8},{"id":154,"name":"Cheri Pasta Bar","address":"24 Galaktion Tabidze St, Tbilisi","district":"sololaki","lat":41.68975,"lon":44.8014,"rating":8.8},{"id":155,"name":"Chez Kinsky","address":"54 Dimitri Uznadze St, T&apos;bilisi, თბილისი","district":"old_town","lat":41.70987,"lon":44.79364,"rating":9.4},{"id":156,"name":"Chicago Style","address":"23 Bakhtrioni street, თბილისი","district":"saburtalo","lat":41.72052,"lon":44.76485,"rating":8.4},{"id":157,"name":"Chicos","address":"11a Ilia Chavchavadze Avenue, თბილისი","district":"vake","lat":41.70946,"lon":44.77368,"rating":9.2},{"id":158,"name":"Chiho","address":"Pekini Ave 25, თბილისი","district":"saburtalo","lat":41.72454,"lon":44.77169,"rating":9.4},{"id":159,"name":"Chika Bazari Orbeliani","address":"3a Vekua Street, თბილისი","district":"old_town","lat":41.69748,"lon":44.80404,"rating":9.0},{"id":160,"name":"Chika Paliashvili","address":"64 Paliashvili Street, Tbilisi","district":"vake","lat":41.70882,"lon":44.76344,"rating":9.4},{"id":161,"name":"Chika To Go","address":"26 Kostava Str, თბილისი","district":"old_town","lat":41.70618,"lon":44.78649,"rating":9.8},{"id":162,"name":"Chika","address":"Merab Kostava St 9, Tbilisi","district":"old_town","lat":41.70517,"lon":44.78955,"rating":9.6},{"id":163,"name":"Chikita","address":"53 Simon Kandelaki St, Tbilisi","district":"saburtalo","lat":41.73055,"lon":44.76086,"rating":8.2},{"id":164,"name":"Chiti","address":"Ekvtime Takaishvili St , Tbilisi","district":"tbilisi","lat":41.70824,"lon":44.77765,"rating":9.6},{"id":165,"name":"ჩიტი ჭავჭავაძე","address":"Chavchavadze 76, თბილისი","district":"vake","lat":41.71055,"lon":44.75195,"rating":9.6},{"id":166,"name":"Chops Asian","address":"14 Korneli Kekelidze St, T&apos;bilisi, Tbilisi","district":"old_town","lat":41.7066,"lon":44.77797,"rating":7.4},{"id":167,"name":"Chopsticks","address":"11 Ilo Mosashvili St, Tbilisi","district":"vake","lat":41.71069,"lon":44.75512,"rating":8.8},{"id":168,"name":"LafshiCo","address":"14 Korneli Kekelidze St, Tbilisi, თბილისი","district":"old_town","lat":41.7066,"lon":44.77797,"rating":8.6},{"id":169,"name":"Chveni Sakhli","address":"Bzitagora St, Tbilisi","district":"samgori","lat":41.69171,"lon":44.87574,"rating":9.4},{"id":170,"name":"Cinnamon","address":"PP6W+JXH Tbilisi, თბილისი","district":"tbilisi","lat":41.71156,"lon":44.74748,"rating":9.6},{"id":171,"name":"City Chicken","address":"73 M. Kostava str, თბილისი","district":"old_town","lat":41.70583,"lon":44.78808,"rating":9.0},{"id":172,"name":"Cloud 9 Lounge & Bar","address":"16 Davit Aghmashenebeli Ave, თბილისი","district":"old_town","lat":41.70349,"lon":44.80295,"rating":7.2},{"id":173,"name":"Cobbler & More","address":"34 Kote Afkhazi St, T&apos;bilisi, Tbilisi","district":"old_town","lat":41.69206,"lon":44.8066,"rating":9.6},{"id":174,"name":"Coffee 22","address":"გიორგი ათონელის 31, თბილისი","district":"old_town","lat":41.70016,"lon":44.80192,"rating":null},{"id":175,"name":"Coffee house Waffles","address":"7 Ilia Chavchavadze ave., Tbilisi, Tbilisi","district":"vake","lat":41.70948,"lon":44.77503,"rating":9.2},{"id":176,"name":"Coffee Lab Chavchavadze","address":"chavchavadze 37 m, თბილისი","district":"vake","lat":41.71157,"lon":44.75697,"rating":9.4},{"id":177,"name":"Coffee Lab Lisi","address":"Lisi Lake, თბილისი","district":"saburtalo","lat":41.74309,"lon":44.73507,"rating":9.2},{"id":178,"name":"Coffee Lab Bazari Orbeliani","address":"3a Vekua St, Tbilisi","district":"old_town","lat":41.69748,"lon":44.80404,"rating":9.4},{"id":179,"name":"Coffee Lab Paliashvili","address":"24 Paliashvili St, Tbilisi","district":"vake","lat":41.70762,"lon":44.77336,"rating":9.6},{"id":180,"name":"Coffee Lab Pop-Up","address":"1 kavtaradze st., თბილისი","district":"saburtalo","lat":41.72454,"lon":44.73885,"rating":9.6},{"id":181,"name":"Coffee Lab","address":"27 Kazbegi ave, თბილისი","district":"saburtalo","lat":41.72551,"lon":44.75435,"rating":9.4},{"id":182,"name":"Coffee Lair","address":"Tbilisi, Chitaia st, 14, თბილისი","district":"old_town","lat":41.71076,"lon":44.80437,"rating":9.6},{"id":183,"name":"Coffee Lars","address":"36 Dzmebi Zubalashvilebi St., Tbilisi","district":"mtatsminda","lat":41.69954,"lon":44.7938,"rating":9.0},{"id":184,"name":"Coffee Line","address":"10 Konstantine Eristavi,, Tbilisi","district":"avlabari","lat":41.69524,"lon":44.81606,"rating":8.8},{"id":185,"name":"Coffee Soul","address":"Atoneli 11/23, თბილისი","district":"old_town","lat":41.69851,"lon":44.80412,"rating":8.4},{"id":186,"name":"Coffee.co","address":"Merab Kostava St 72, Tbilisi","district":"saburtalo","lat":41.72119,"lon":44.77725,"rating":null},{"id":187,"name":"Coffeeshop Company Marjanishvili","address":"Kote Marjanishvili, თბილისი","district":"old_town","lat":41.71142,"lon":44.80166,"rating":8.8},{"id":188,"name":"Coffeeshop Company Vake","address":"11 Mosashvili Street, Tbilisi","district":"vake","lat":41.71069,"lon":44.75512,"rating":8.6},{"id":189,"name":"Coffeesta Gamrekeli","address":"Davit Gamrekeli st.1, თბილისი","district":"saburtalo","lat":41.72129,"lon":44.77063,"rating":null},{"id":190,"name":"Coffeesta Kostava","address":"კოსტავას 76, თბილისი","district":"saburtalo","lat":41.72265,"lon":44.77682,"rating":8.8},{"id":191,"name":"Coffer","address":"11 Dzmebi Zubalashvilebi St, თბილისი","district":"mtatsminda","lat":41.6986,"lon":44.79556,"rating":null},{"id":192,"name":"Combo","address":"MRQR+2MP, ვ. ჩაჩავას ქუჩა, , თბილისი","district":"isani","lat":41.68773,"lon":44.84148,"rating":null},{"id":193,"name":"Corner Cafe","address":"n9 Mosashvili St,, Tbilisi","district":"vake","lat":41.71046,"lon":44.75633,"rating":9.0},{"id":194,"name":"Cosimo's Pizza","address":"7 Davit Gamrekeli St, Tbilisi, თბილისი","district":"saburtalo","lat":41.72346,"lon":44.7699,"rating":9.6},{"id":195,"name":"Costa Coffee","address":"Chavchavadze avenue 10, თბილისი","district":"vake","lat":41.70899,"lon":44.77735,"rating":8.8},{"id":196,"name":"Cotsho","address":"Arnold Chikobava 43 , თბილისი","district":"old_town","lat":41.70802,"lon":44.80507,"rating":8.8},{"id":197,"name":"ქორთიარდ მერიოტი თბილისი","address":"4 Freedom Square, თბილისი","district":"sololaki","lat":41.69391,"lon":44.80035,"rating":8.6},{"id":198,"name":"Craft Pizza Saburtalo","address":"Zhiuli Shartava 4b, Tbilisi","district":"saburtalo","lat":41.72492,"lon":44.77539,"rating":9.2},{"id":199,"name":"Craft Food Bazari Orbeliani","address":"3 Vekua Street, თბილისი","district":"old_town","lat":41.69748,"lon":44.80404,"rating":8.8},{"id":200,"name":"Craft Food Saburtalo","address":"Zhiuli Shartava 4b, Tbilisi","district":"saburtalo","lat":41.72492,"lon":44.77539,"rating":8.8},{"id":201,"name":"Craft Wine Restaurant","address":"54 E.Ninoshvili street, თბილისი","district":"old_town","lat":41.71566,"lon":44.79826,"rating":8.6},{"id":202,"name":"Craft Shawarma Varketili","address":"Javakhetis 130, თბილისი","district":"samgori","lat":41.69471,"lon":44.86985,"rating":9.0},{"id":203,"name":"Crepe Carpentier Bazari Orlebiani","address":"Vekua street 3 a, 0108 Tbilisi, Tbilisi","district":"old_town","lat":41.69748,"lon":44.80404,"rating":null},{"id":204,"name":"Crepe Carpentier Isani","address":"Ketevan Dedofali Ave 57a, Tbilisi","district":"isani","lat":41.68697,"lon":44.83024,"rating":8.6},{"id":205,"name":"Creperie Vake","address":"Paliashvili St, N3 , თბილისი","district":"vake","lat":41.70875,"lon":44.76589,"rating":9.2},{"id":206,"name":"Crispy Sushi","address":"Akhalubnis 3 , თბილისი","district":"didi_digomi","lat":41.6938,"lon":44.80152,"rating":9.6},{"id":207,"name":"Crispy Sushi Avlabari","address":"MRRC+37 Тбилиси, თბილისი","district":"tbilisi","lat":41.69019,"lon":44.82069,"rating":null},{"id":208,"name":"Crêpe Carpentier","address":"9 Alexander Kazbegi Avenue, თბილისი","district":"saburtalo","lat":41.72659,"lon":44.76626,"rating":9.4},{"id":209,"name":"Culinary #7","address":"16 Rapiel Eristavi  Street, თბილისი","district":"vake","lat":41.70867,"lon":44.77525,"rating":9.0},{"id":210,"name":"Cups and Clouds Marjanishvili","address":"86 Davit Aghmashenebeli Ave, Tbilisi","district":"old_town","lat":41.70912,"lon":44.79723,"rating":null},{"id":211,"name":"CVC Chinese Restaurant","address":"Egnate Ninoshvili St 2, Tbilisi","district":"old_town","lat":41.70906,"lon":44.80325,"rating":8.2},{"id":212,"name":"საიბერშოკი","address":"35 Simon Kandelaki, თბილისი","district":"saburtalo","lat":41.73083,"lon":44.76331,"rating":9.4},{"id":213,"name":"Daisy Brunch and Bakery","address":"Irakli Abashidze St 39, Tbilisi","district":"vake","lat":41.70814,"lon":44.76289,"rating":9.6},{"id":214,"name":"Daner Pizza","address":"Shota Nishnianidze St, N4, Tbilisi","district":"old_town","lat":41.696,"lon":44.80446,"rating":9.8},{"id":215,"name":"De Gusti Didube","address":"David Kipiani Street 6, თბილისი","district":"chugureti","lat":41.72613,"lon":44.78571,"rating":9.0},{"id":216,"name":"De Gusti Saburtalo","address":"8 Alexander Kazbegi Ave, თბილისი","district":"saburtalo","lat":41.72597,"lon":44.76565,"rating":9.4},{"id":217,"name":"Dellato","address":"PQ2Q+MHX, Tbilisi","district":"tbilisi","lat":41.70174,"lon":44.78898,"rating":9.8},{"id":218,"name":"Dessert Ballet","address":"4 Besik Str, თბილისი","district":"mtatsminda","lat":41.69855,"lon":44.79678,"rating":9.4},{"id":219,"name":"Dimsumin Saburtalo","address":"Bakery 9/g, თბილისი","district":"old_town","lat":41.70986,"lon":44.80412,"rating":9.0},{"id":220,"name":"Ding Sheng","address":"40 Shota Rustaveli Avenue, Tbilisi","district":"old_town","lat":41.70172,"lon":44.79339,"rating":9.0},{"id":221,"name":"Dining Room","address":"38 Paliashvili Str., თბილისი","district":"vake","lat":41.70796,"lon":44.76939,"rating":9.2},{"id":222,"name":"Dipstrip","address":"PQCH+32C Tbilisi, Tbilisi","district":"tbilisi","lat":41.72019,"lon":44.77752,"rating":9.2},{"id":223,"name":"Dipstrip Kavtaradze","address":"33n Petre Kavtaradze St, Tbilisi","district":"saburtalo","lat":41.72106,"lon":44.72656,"rating":9.4},{"id":224,"name":"Dirty Habit","address":"9 Geronti Kikodze St, თბილისი","district":"sololaki","lat":41.69072,"lon":44.79813,"rating":null},{"id":225,"name":"Dolidzis Shaurma","address":"5 Viktor Dolidze St, თბილისი","district":"vake","lat":41.71758,"lon":44.77575,"rating":8.6},{"id":226,"name":"Domino's Pizza Chavchavadze","address":"Ilia chavchavadze avenue 9a, თბილისი","district":"vake","lat":41.70926,"lon":44.77417,"rating":9.2},{"id":227,"name":"Doomfara","address":"Vasil Barnov 56, Tbilisi","district":"old_town","lat":41.70489,"lon":44.78116,"rating":9.6},{"id":228,"name":"Dragon Roll","address":"PRHG+MV6 Tbilisi, თბილისი","district":"tbilisi","lat":41.72916,"lon":44.82714,"rating":null},{"id":229,"name":"Drip Burger","address":"Fabrika Tbilisi, 8 Egnate Ninoshvili St, Tbilisi, Tbilisi","district":"old_town","lat":41.70942,"lon":44.80289,"rating":null},{"id":230,"name":"Dro Daily","address":"42 Abashidze Street, Tbilisi","district":"vake","lat":41.70772,"lon":44.76339,"rating":9.2},{"id":231,"name":"Dro Marjanishvili","address":"125a Mikheili Tsinamdzghvrishvili St, თბილისი","district":"old_town","lat":41.71818,"lon":44.79527,"rating":9.0},{"id":232,"name":"DRO Pekini","address":"This is a virtual venue, Tbilisi","district":"didi_digomi","lat":41.6938,"lon":44.80152,"rating":9.2},{"id":233,"name":"DUO","address":"2 Ivane Tarkhnishvili St, T&apos;bilisi, თბილისი","district":"old_town","lat":41.70695,"lon":44.78374,"rating":9.6},{"id":234,"name":"Dublin Pub","address":"Giorgi Akhvlediani St 8, თბილისი","district":"old_town","lat":41.70528,"lon":44.79019,"rating":9.0},{"id":235,"name":"Duchef","address":"1 Taras Shevchenko St, Tbilisi","district":"mtatsminda","lat":41.69793,"lon":44.79661,"rating":9.4},{"id":236,"name":"Dukani Racha","address":"მიხეილ ლერმონტოვის ქუჩა 4, თბილისი","district":"sololaki","lat":41.69108,"lon":44.80261,"rating":9.2},{"id":237,"name":"Dunkin' Bakradze","address":"Dimitri Bakradze St 40, Tbilisi","district":"old_town","lat":41.70605,"lon":44.78432,"rating":9.2},{"id":238,"name":"Dunkin' Chavchavadze","address":"37 Ilia Chavchavadze Avenue, Tbilisi","district":"vake","lat":41.71183,"lon":44.75835,"rating":9.2},{"id":239,"name":"Dunkin' City Mall","address":"PPFQ+H4J Tbilisi, Tbilisi","district":"tbilisi","lat":41.72396,"lon":44.73777,"rating":8.8},{"id":240,"name":"Dunkin' Dolidze","address":"2 Viktor Dolidze St, თბილისი","district":"vake","lat":41.71634,"lon":44.76834,"rating":9.0},{"id":241,"name":"Dunkin' Martskhena Sanapiro (Gogilos Abanoebtan)","address":"MRPF+F5G Tbilisi, tbilisi","district":"tbilisi","lat":41.68619,"lon":44.82295,"rating":8.8},{"id":242,"name":"Dunkin' Lisi","address":"PPRQ+JP9 Tbilisi, Tbilisi","district":"tbilisi","lat":41.74154,"lon":44.73936,"rating":9.8},{"id":243,"name":"Dunkin' Isani Mall","address":"Navtlughi St 8a, თბილისი","district":"isani","lat":41.68294,"lon":44.84154,"rating":9.0},{"id":244,"name":"Dunkin' Ortachala","address":"Dimitry Gulia St, თბილისი","district":"isani","lat":41.67943,"lon":44.82743,"rating":8.8},{"id":245,"name":"Dunkin' Dedaenis Baghi","address":"41.70084, 44.80427, Tbilisi","district":"didi_digomi","lat":41.6938,"lon":44.80152,"rating":9.0},{"id":246,"name":"Dunkin' Marjvena Sanapiro","address":"PQHG+FP2 Tbilisi, Tbilisi","district":"tbilisi","lat":41.72864,"lon":44.77677,"rating":8.8},{"id":247,"name":"Dunkin' Vashlijvari","address":"QQ59+M72, Tbilisi, Tbilisi","district":"tbilisi","lat":41.75914,"lon":44.76814,"rating":9.2},{"id":248,"name":"Dzin Chao","address":"64 Merab Kostava Street, Tbilisi, თბილისი","district":"vake","lat":41.71348,"lon":44.77947,"rating":9.6},{"id":249,"name":"Old Time","address":"106 Aghmashenebeli ave, თბილისი","district":"old_town","lat":41.71028,"lon":44.79605,"rating":8.8},{"id":250,"name":"Eari","address":"Geronti Kikodze St, N10, Tbilisi","district":"sololaki","lat":41.69084,"lon":44.79854,"rating":null},{"id":251,"name":"Eatblu","address":"3, Ilo Mosashvili, Tbilisi, თბილისი","district":"vake","lat":41.71047,"lon":44.75768,"rating":9.4},{"id":252,"name":"ეგოისტ ჩუღურეთი","address":"22 Arnold Chikobava Street, თბილისი","district":"old_town","lat":41.70745,"lon":44.80475,"rating":8.0},{"id":253,"name":"Egoist Isani","address":"65 Ketevan Tsamebuli, Tbilisi","district":"outer","lat":41.69679,"lon":44.7079,"rating":7.8},{"id":254,"name":"Egoist Saburtalo","address":"2 Marshal Archil Gelovani, Tbilisi","district":"saburtalo","lat":41.75818,"lon":44.76828,"rating":8.2},{"id":255,"name":"Egoist Vazha Pshavela","address":"90B Vazha-Pshavela, Tbilisi","district":"outer","lat":41.69816,"lon":44.68964,"rating":8.0},{"id":256,"name":"Elit Restaurant","address":"Davit Agmashenebeli 112, Tbilisi","district":"old_town","lat":41.71112,"lon":44.79586,"rating":8.8},{"id":257,"name":"Elkunafha","address":"Davit Aghmashenebil 59 a, თბილისი","district":"old_town","lat":41.7065,"lon":44.79995,"rating":9.2},{"id":258,"name":"Emperor","address":"3a Napareuli Street, თბილისი","district":"vake","lat":41.70878,"lon":44.77679,"rating":9.6},{"id":259,"name":"Episode Eatz","address":"pekini Avenue #41, თბილისი","district":"saburtalo","lat":41.73021,"lon":44.76856,"rating":9.4},{"id":260,"name":"Erti Kava","address":"Mitropane Laghidze street 8, თბილისი","district":"samgori","lat":41.69243,"lon":44.86493,"rating":9.2},{"id":261,"name":"Espresso Cafe and Shop Tsereteli","address":"77a Akaki Tsereteli Ave. , თბილისი","district":"chugureti","lat":41.73752,"lon":44.78491,"rating":7.2},{"id":262,"name":"Evil Wok Saburtalo","address":"Archil Gelovani st. 14, Tbilisi","district":"saburtalo","lat":41.72538,"lon":44.7309,"rating":9.0},{"id":263,"name":"Evil Wok Dighomi","address":"Dighomi Massive III, Building 35, თბილისი","district":"saburtalo","lat":41.75933,"lon":44.77689,"rating":9.0},{"id":264,"name":"Ezoshi","address":"1/2 Mekanizatsia Turn, თბილისი","district":"saburtalo","lat":41.79617,"lon":44.76887,"rating":8.6},{"id":265,"name":"Fabio","address":"PQ5P+GF9 Tbilisi, Tbilisi","district":"tbilisi","lat":41.70879,"lon":44.78623,"rating":null},{"id":266,"name":"Falafel Box","address":"26 Shalva Dadiani St, თბილისი","district":"sololaki","lat":41.6903,"lon":44.8024,"rating":8.4},{"id":267,"name":"Family Food","address":"This is a virtual venue, Tbilisi","district":"didi_digomi","lat":41.6938,"lon":44.80152,"rating":9.6},{"id":268,"name":"Farina","address":"Vashlovani st. 1, თბილისი","district":"old_town","lat":41.70608,"lon":44.78852,"rating":9.2},{"id":269,"name":"Fast Wok","address":"Sh. NUtsubidze St, N77a, თბილისი","district":"saburtalo","lat":41.72743,"lon":44.7378,"rating":9.4},{"id":270,"name":"Fat Salmon","address":"4 Nikoloz Berdzenishvili St,, თბილისი","district":"vake","lat":41.70892,"lon":44.75894,"rating":9.6},{"id":271,"name":"Feauless Pastry House","address":"რუსთაველის გამზირი, 36 , თბილისი","district":"old_town","lat":41.70151,"lon":44.79408,"rating":8.2},{"id":272,"name":"Honey","address":"21 Adam Mitskevichi St, თბილისი","district":"saburtalo","lat":41.72457,"lon":44.76632,"rating":9.8},{"id":273,"name":"Fiesta","address":"29 Revaz Tabukashvili St, თბილისი","district":"old_town","lat":41.70224,"lon":44.79651,"rating":8.8},{"id":274,"name":"Filini","address":"1 Republic square, თბილისი","district":"old_town","lat":41.70376,"lon":44.79187,"rating":9.0},{"id":275,"name":"Fiorino","address":"77 Merab Kostava St, Tbilisi","district":"saburtalo","lat":41.72463,"lon":44.77707,"rating":8.4},{"id":276,"name":"Fire Chow","address":"n11 Ateni St,, Tbilisi","district":"vake","lat":41.71025,"lon":44.77327,"rating":9.2},{"id":277,"name":"Fishmarket Culinaria","address":"21a Irakli Abashidze Street, თბილისი","district":"vake","lat":41.70774,"lon":44.76749,"rating":null},{"id":278,"name":"FishPoint","address":"Paliashvili 55, Tbilisi","district":"vake","lat":41.70947,"lon":44.76084,"rating":8.8},{"id":279,"name":"Fit Project","address":"ეს არის ვირტუალური რესტორანი, თბილისი","district":"isani","lat":41.69108,"lon":44.84202,"rating":9.6},{"id":280,"name":"Fitmeal","address":"13 Gazapkhuli St, Tbilisi","district":"saburtalo","lat":41.73159,"lon":44.74126,"rating":9.2},{"id":281,"name":"Fitshaurma","address":"Bakhtrioni St 11a, Tbilisi","district":"saburtalo","lat":41.72085,"lon":44.76939,"rating":8.8},{"id":282,"name":"Aroma Indian And Arabic Restaurant","address":"Shalva Dadiani 12, Liberty Square, თბილისი","district":"sololaki","lat":41.69197,"lon":44.80303,"rating":8.6},{"id":283,"name":"Flash Shawarma","address":"66 Dimitri Uznadze St, T&apos;bilisi, თბილისი","district":"old_town","lat":41.7113,"lon":44.79255,"rating":9.0},{"id":284,"name":"Fomo Momo","address":"1 Shota Nishnianidze Street, თბილისი","district":"old_town","lat":41.69565,"lon":44.80318,"rating":null},{"id":285,"name":"Food and Market","address":"Vazha-Pshavela Ave 70, თბილისი","district":"saburtalo","lat":41.72401,"lon":44.73603,"rating":9.2},{"id":286,"name":"Food Good Bazari Orbeliani","address":"bazar orbeliani, Tbilisi","district":"old_town","lat":41.69781,"lon":44.80417,"rating":9.0},{"id":287,"name":"Food Good","address":"43 Ilia Chavchavadze Avenue, Tbilisi, Tbilisi","district":"vake","lat":41.7121,"lon":44.75096,"rating":9.2},{"id":288,"name":"Foodaholic","address":"Twentysix May Square, Tbilisi . ტექნიკური მეტროს ამომსასვლელთან, მიწისქვეშ/Near the entrance of Technical Metro, underground , Tbilisi","district":"saburtalo","lat":41.72064,"lon":44.77663,"rating":9.2},{"id":289,"name":"FOODBOX Saburtalo","address":"19/21 Pavle Aslanidi st, Tbilisi","district":"vake","lat":41.71873,"lon":44.78133,"rating":8.4},{"id":290,"name":"Foodman","address":"PPFG+69 Тбилиси, Tbilisi","district":"tbilisi","lat":41.72306,"lon":44.72594,"rating":9.6},{"id":291,"name":"Fork","address":"30 Alexander Kazbegi Avenue, Tbilisi","district":"saburtalo","lat":41.72374,"lon":44.74331,"rating":9.6},{"id":292,"name":"FORKS’nCHEFS","address":"PPMH+4VH Tbilisi, Tbilisi","district":"tbilisi","lat":41.73281,"lon":44.72973,"rating":null},{"id":293,"name":"Fragola","address":"Kazbegi ave. 2, თბილისი","district":"saburtalo","lat":41.72612,"lon":44.76733,"rating":9.6},{"id":294,"name":"Fresh Restaurant","address":"7 Mukhran Machavariani St , თბილისი","district":"saburtalo","lat":41.73679,"lon":44.74971,"rating":9.6},{"id":295,"name":"FryDay","address":"Dedaena Park, თბილისი","district":"old_town","lat":41.7008,"lon":44.80421,"rating":9.4},{"id":296,"name":"Fuoco Forno","address":"10 Ilia Chavchavadze Avenue, Tbilisi","district":"vake","lat":41.70899,"lon":44.77735,"rating":9.2},{"id":297,"name":"Gegelato Gallerea Tbilisi","address":"Galleria Tbilisi, Shota Rustaveli Avenue, Tbilisi, Tbilisi","district":"sololaki","lat":41.69488,"lon":44.79976,"rating":9.4},{"id":298,"name":"ჯეჯელატო მელიქიშვილი","address":"6 Petre Melikishvili st, თბილისი","district":"old_town","lat":41.70627,"lon":44.78525,"rating":9.4},{"id":299,"name":"GeGelato Saburtalo","address":"25 Pekini Ave, Tbilisi","district":"saburtalo","lat":41.72454,"lon":44.77169,"rating":8.8},{"id":300,"name":"Gemrieli Shesveneba","address":"MVW3+WHG, Tbilisi, Tbilisi","district":"tbilisi","lat":41.69731,"lon":44.85395,"rating":null},{"id":301,"name":"Gennaro","address":"Bakhtrioni st. 11 ბ, თბილისი","district":"saburtalo","lat":41.72151,"lon":44.77131,"rating":9.6},{"id":302,"name":"Pekopeko Curry","address":"10 Shalva Ghambashidze Street, Tbilisi, Tbilisi","district":"old_town","lat":41.70828,"lon":44.78405,"rating":9.2},{"id":303,"name":"Georgian House","address":"2 Giorgi Tsabadze St, თბილისი","district":"old_town","lat":41.72075,"lon":44.78677,"rating":9.6},{"id":304,"name":"Georgian Taste","address":"62 David Agmashenebeli Ave, თბილისი","district":"old_town","lat":41.70704,"lon":44.79895,"rating":8.2},{"id":305,"name":"Ghomi Da Kharcho Vake","address":"paliashvili 36 a, Tbilisi","district":"vake","lat":41.70815,"lon":44.77036,"rating":8.4},{"id":306,"name":"Ghomi Da Kveli Tavisupleba","address":"Kote Afkhazi St 4, თბილისი","district":"sololaki","lat":41.69313,"lon":44.80249,"rating":9.0},{"id":307,"name":"Ghomi Da Kveli Vake","address":"Ilia Chavchavadze II Dead End 4, თბილისი","district":"vake","lat":41.71015,"lon":44.76938,"rating":9.2},{"id":308,"name":"Giorgio","address":"38 Arsena St, Tbilisi, Tbilisi","district":"mtatsminda","lat":41.69906,"lon":44.79287,"rating":8.6},{"id":309,"name":"Gldani Express Saburtalo","address":"35, Iona Vakeli Street, თბილისი","district":"saburtalo","lat":41.72867,"lon":44.75922,"rating":8.6},{"id":310,"name":"Gldanis Shaurma I Dzveli Gemo Saakadze","address":"3, Chabukiani Street, თბილისი","district":"saburtalo","lat":41.72398,"lon":44.77558,"rating":8.8},{"id":311,"name":"Gobi Bazari Orbeliani","address":"3a Vekua Street, თბილისი","district":"old_town","lat":41.69748,"lon":44.80404,"rating":9.2},{"id":312,"name":"Gochit's Burger Isani","address":"MRQM+55G Tbilisi, თბილისი","district":"tbilisi","lat":41.68794,"lon":44.83295,"rating":8.4},{"id":313,"name":"Gochit's Burger Marjanishvili","address":"189 David Agmashenebeli Ave, თბილისი","district":"old_town","lat":41.7203,"lon":44.78989,"rating":8.2},{"id":314,"name":"Gochit's Monster Burgers Vazha Pshavela","address":"58 Vazha Pshavela Ave, თბილისი","district":"saburtalo","lat":41.72495,"lon":44.74228,"rating":7.6},{"id":315,"name":"Golden Burger","address":"S. Kandelaki St , N 53, თბილისი","district":"saburtalo","lat":41.73066,"lon":44.76359,"rating":8.4},{"id":316,"name":"Golden Shaurma","address":"21 Kutaisi Street, T&apos;bilisi, Tbilisi","district":"chugureti","lat":41.72701,"lon":44.78532,"rating":7.8},{"id":317,"name":"Good Choice Sololaki","address":"1, Geronti Kikodze Street, თბილისი","district":"sololaki","lat":41.69194,"lon":44.7982,"rating":9.0},{"id":318,"name":"Gram BBQ","address":"56 Vasil Barnovi St, T&apos;bilisi, Tbilisi","district":"sololaki","lat":41.672,"lon":44.77209,"rating":9.2},{"id":319,"name":"Greek Point","address":"Dedaena Square, თბილისი","district":"old_town","lat":41.70111,"lon":44.80455,"rating":9.0},{"id":320,"name":"Green Terrace","address":"11 Korneli Kekelidze St, თბილისი","district":"vake","lat":41.70736,"lon":44.77806,"rating":8.8},{"id":321,"name":"Grill More Saburtalo","address":"Grill More Kavtaradze 39, თბილისი","district":"saburtalo","lat":41.72106,"lon":44.72389,"rating":9.4},{"id":322,"name":"Gurmania - Merdini Isani","address":"92 Atskuri st, თბილისი","district":"isani","lat":41.68872,"lon":44.84177,"rating":9.2},{"id":323,"name":"Hacker-Pschorr","address":"Sulkhan Tsintsadze St 12, თბილისი","district":"saburtalo","lat":41.72188,"lon":44.76982,"rating":9.0},{"id":324,"name":"BD Halal Chicken Shawarma & Falafel","address":"34 Marjanishvili Street, Tbilisi","district":"old_town","lat":41.70939,"lon":44.79632,"rating":7.6},{"id":325,"name":"Halal Foods","address":"PQFJ+34 Tbilisi, თბილისი","district":"tbilisi","lat":41.72269,"lon":44.78031,"rating":null},{"id":326,"name":"Healthy Bowl","address":"24 Irakli Abashidze Street, Tbilisi","district":"vake","lat":41.70721,"lon":44.76782,"rating":9.0},{"id":327,"name":"Healthy Box","address":"5 Giorgi Gegechkori St, Tbilisi","district":"saburtalo","lat":41.7219,"lon":44.74002,"rating":8.6},{"id":328,"name":"Hello Breakfast","address":"40 Mikheil Zandukeli Street , თბილისი","district":"old_town","lat":41.70411,"lon":44.78405,"rating":9.0},{"id":329,"name":"Hill","address":"PQ83+48 Tbilisi, თბილისი","district":"tbilisi","lat":41.71531,"lon":44.75331,"rating":9.4},{"id":330,"name":"Hokkaido","address":"82 Ketevan Dedofali Ave, Tbilisi","district":"isani","lat":41.68734,"lon":44.83278,"rating":8.8},{"id":331,"name":"Holiday Inn","address":"holiday inn, Tbilisi","district":"vake","lat":41.71933,"lon":44.77776,"rating":9.4},{"id":332,"name":"Hong Kong Noodles","address":"21 Ovanes Tumaniani St , Tbilisi","district":"old_town","lat":41.69075,"lon":44.80775,"rating":7.6},{"id":333,"name":"Honoré","address":"constitution street 4, Tbilisi","district":"old_town","lat":41.71675,"lon":44.79744,"rating":8.8},{"id":334,"name":"Hot Dog By Big Sam’s Gallerea Tbilisi","address":"2/4 Shota Rustaveli Ave, თბილისი","district":"sololaki","lat":41.69437,"lon":44.79984,"rating":8.6},{"id":335,"name":"Hot Dog By Big Sam’s Mosashvili","address":"24 Ilo Mosashvili St, თბილისი","district":"vake","lat":41.71045,"lon":44.75507,"rating":9.2},{"id":336,"name":"Hot Dog By Big Sam’s Saburtalo","address":"2 Alexander Kazbegi Ave, Tbilisi","district":"saburtalo","lat":41.72612,"lon":44.76733,"rating":9.2},{"id":337,"name":"Hot Wings","address":"2 Ramaz Chkhikvadze St, თბილისი","district":"saburtalo","lat":41.72826,"lon":44.73232,"rating":8.2},{"id":338,"name":"Hot Wok","address":"Tashkenti St , N23, Tbilisi","district":"saburtalo","lat":41.72961,"lon":44.76336,"rating":9.4},{"id":339,"name":"Hurma Cafe","address":"9 melikishvili street, Tbilisi","district":"old_town","lat":41.70797,"lon":44.78356,"rating":9.4},{"id":340,"name":"Iasamani","address":"33 1 Lado Asatiani St, თბილისი","district":"old_town","lat":41.69019,"lon":44.80518,"rating":9.0},{"id":341,"name":"Iashvilebi","address":"13 Bolo Rise, თბილისი","district":"sololaki","lat":41.68952,"lon":44.7888,"rating":null},{"id":342,"name":"Sushi Market Mrgvali Baghi","address":"2a Irakli Abashidze St, Tbilisi","district":"vake","lat":41.70699,"lon":44.77429,"rating":9.6},{"id":343,"name":"Imperi","address":"46b Gogebashvili street, თბილისი","district":"old_town","lat":41.70343,"lon":44.78068,"rating":9.4},{"id":344,"name":"Imperi Vazisubani","address":"შანდორ პეტეფის ქუჩა 19, თბილისი","district":"samgori","lat":41.69349,"lon":44.86131,"rating":9.6},{"id":345,"name":"Indian Biriyani House","address":"Gia Tetelashvili 3, თბილისი","district":"old_town","lat":41.71079,"lon":44.79509,"rating":7.4},{"id":346,"name":"Indus Aroma Restaurant","address":"6 Giorgi Mercheuli Str, Tbilisi","district":"avlabari","lat":41.68566,"lon":44.81539,"rating":8.2},{"id":347,"name":"Ippai Sushi","address":"Sh. NUtsubidze St, N77a, თბილისი","district":"saburtalo","lat":41.72743,"lon":44.7378,"rating":null},{"id":348,"name":"Isani 65","address":"65 Ketevan Dedofali Ave , თბილისი","district":"isani","lat":41.68628,"lon":44.83919,"rating":8.4},{"id":349,"name":"Istanbul Kebabs Bazari Orbeliani","address":"3a Vekua St , Tbilisi","district":"old_town","lat":41.69748,"lon":44.80404,"rating":9.2},{"id":350,"name":"iSushi","address":"3a Napareuli Street, Tbilisi","district":"vake","lat":41.70878,"lon":44.77679,"rating":9.4},{"id":351,"name":"iSushi Napareuli","address":"N3 Napareuli Street, თბილისი","district":"vake","lat":41.70828,"lon":44.7769,"rating":9.6},{"id":352,"name":"Iveria Cafe","address":"1 Rose Revolutions Square, Tbilisi , Tbilisi","district":"old_town","lat":41.70374,"lon":44.79372,"rating":9.2},{"id":353,"name":"Izakaya","address":"11 Ia Kargareteli Street, Tbilisi","district":"old_town","lat":41.71525,"lon":44.79368,"rating":8.6},{"id":354,"name":"Izbushka Bazari Orbeliani","address":"Vekua street 3 a, 0108 Tbilisi, თბილისი","district":"old_town","lat":41.69748,"lon":44.80404,"rating":9.6},{"id":355,"name":"Jackie Chan","address":"18 Bakhtrioni Street, Tbilisi","district":"saburtalo","lat":41.72048,"lon":44.76835,"rating":8.8},{"id":356,"name":"Jackie Chan Isani","address":"26 Tsinandali Street, Tbilisi, Tbilisi","district":"isani","lat":41.69061,"lon":44.82746,"rating":8.6},{"id":357,"name":"Jackie Chan Sushi","address":"18 Bakhtrioni Str, Tbilisi","district":"saburtalo","lat":41.72048,"lon":44.76835,"rating":8.0},{"id":358,"name":"Jackie Chan Sushi Isani","address":"26 Tsinandali Street, თბილისი","district":"isani","lat":41.69061,"lon":44.82746,"rating":9.0},{"id":359,"name":"Jade Cafe","address":"11 Ilia Chavchavadze Avenue, თბილისი","district":"vake","lat":41.70913,"lon":44.77293,"rating":null},{"id":360,"name":"Halal Jano's Shawarma Isani Metro","address":"Halal Jano&apos;s Shaurma, Tbilisi","district":"isani","lat":41.68541,"lon":44.84021,"rating":8.0},{"id":361,"name":"პოტატო+","address":"ზ. ფალიაშვილის ქ. 39, თბილისი","district":"vake","lat":41.70899,"lon":44.76661,"rating":9.2},{"id":362,"name":"Japan Sushiburger Vake","address":"ფალიაშვილის ქუჩა 39, თბილისი","district":"vake","lat":41.70899,"lon":44.76661,"rating":9.6},{"id":363,"name":"Japanese Poke Bowl","address":"24 Irakli Abashidze Street, თბილისი","district":"vake","lat":41.70721,"lon":44.76782,"rating":9.4},{"id":364,"name":"Japanese Sando & Poke","address":"2a Irakli Abashidze St, Tbilisi","district":"vake","lat":41.70699,"lon":44.77429,"rating":9.0},{"id":365,"name":"Jusai Uyghur Cuisine","address":"2 Ivane Machabeli street , თბილისი","district":"sololaki","lat":41.69232,"lon":44.79992,"rating":9.6},{"id":366,"name":"Just Burgers","address":"roman miminoshvili street 2, Tbilisi","district":"old_town","lat":41.70625,"lon":44.78809,"rating":9.4},{"id":367,"name":"Kade","address":"94 Mikheili Tsinamdzghvrishvili St, Tbilisi","district":"old_town","lat":41.71148,"lon":44.79883,"rating":9.2},{"id":368,"name":"Kado Napareuli","address":"Napareuli St , N3a , თბილისი","district":"vake","lat":41.70828,"lon":44.7769,"rating":9.6},{"id":369,"name":"Kado","address":"Napareuli St, N3a, თბილისი","district":"vake","lat":41.70828,"lon":44.7769,"rating":9.6},{"id":370,"name":"Kalina Ukrainian","address":"18 Shalva Dadiani St, Tbilisi, თბილისი","district":"sololaki","lat":41.69141,"lon":44.80232,"rating":9.4},{"id":371,"name":"Kartli Joys","address":"Napareuli st. 16, Tbilisi","district":"vake","lat":41.70752,"lon":44.77698,"rating":9.2},{"id":372,"name":"Kartli Joys Chugureti","address":"22 Davit Aghmashenebeli Avenue, Tbilisi","district":"old_town","lat":41.70384,"lon":44.80259,"rating":9.0},{"id":373,"name":"Georgian Pub","address":"2 Nikoloz Baratshvili St, თბილისი","district":"nadzaladevi","lat":41.80996,"lon":44.82117,"rating":9.2},{"id":374,"name":"კავაი სუში","address":"Zhiuli Shartava st.  45a, თბილისი","district":"saburtalo","lat":41.73133,"lon":44.77057,"rating":9.4},{"id":375,"name":"Keppe","address":"36a Zakaria Paliashvili Str, Tbilisi","district":"vake","lat":41.70815,"lon":44.77036,"rating":6.6},{"id":376,"name":"KFC Chavchavadze","address":"30 Ilia Chavchavadze Avenue, Tbilisi","district":"vake","lat":41.70886,"lon":44.77167,"rating":9.2},{"id":377,"name":"KFC Galleria Tbilisi","address":"2/4 Shota Rustaveli Ave, Tbilisi","district":"sololaki","lat":41.69437,"lon":44.79984,"rating":9.0},{"id":378,"name":"KFC Isani Mall","address":"8a Navtlughi St, თბილისი","district":"isani","lat":41.68294,"lon":44.84154,"rating":8.8},{"id":379,"name":"Kharcho By ARTHOUSE","address":"18 Gudiashvili street , თბილისი","district":"mtatsminda","lat":41.69743,"lon":44.79993,"rating":8.6},{"id":380,"name":"Khash-Khash","address":"33 Mazniashvili Street, Tbilisi","district":"old_town","lat":41.70875,"lon":44.80363,"rating":8.8},{"id":381,"name":"Khedi","address":"24 Ketevan Dedofali Ave, თბილისი","district":"avlabari","lat":41.68976,"lon":44.81994,"rating":9.2},{"id":382,"name":"Khedi Sushi Bar","address":"24 Ketevan Dedofali Av, Tbilisi","district":"avlabari","lat":41.68976,"lon":44.81994,"rating":8.6},{"id":383,"name":"Khinkali & Chebureki Bazari Orbeliani","address":"3 Vekua Street, T&apos;bilisi, Tbilisi","district":"old_town","lat":41.69748,"lon":44.80404,"rating":8.2},{"id":384,"name":"Khinkali Factory Atoneli","address":"2 Pkhovi St, თბილისი","district":"old_town","lat":41.69847,"lon":44.80282,"rating":8.8},{"id":385,"name":"ხინკლის სახლი ივერონი","address":"Rose Revolution Square, Tbilisi, თბილისი","district":"old_town","lat":41.70392,"lon":44.79183,"rating":8.0},{"id":386,"name":"Khinkali House Rustaveli","address":"37, Shota Rustaveli Avenue, თბილისი","district":"old_town","lat":41.70356,"lon":44.79132,"rating":9.2},{"id":387,"name":"Khinkali House Varketili","address":"12, Moscow Avenue, თბილისი","district":"samgori","lat":41.68247,"lon":44.86797,"rating":8.8},{"id":388,"name":"Khinkali & Kababi Dighomi","address":"19, Grigol Robakidze Avenue, თბილისი","district":"didube","lat":41.75894,"lon":44.77272,"rating":7.2},{"id":389,"name":"Khinkali Veriko","address":"1 Vasil Petriashvili St , თბილისი","district":"old_town","lat":41.70856,"lon":44.78075,"rating":9.4},{"id":390,"name":"Pkhali&Khinkali","address":"133 Davit Aghmashenebeli Ave / 11 Ia Kargareteli Street, თბილისი","district":"old_town","lat":41.71515,"lon":44.79358,"rating":8.2},{"id":391,"name":"Kievuri","address":"PQ72+F29 Tbilisi, თბილისი","district":"tbilisi","lat":41.71366,"lon":44.75011,"rating":9.2},{"id":392,"name":"Kievuri Vera","address":"18 Giorgi Akhvlediani St, თბილისი","district":"old_town","lat":41.70651,"lon":44.78903,"rating":9.6},{"id":393,"name":"Kikliko","address":"მცხეთის ქ N28, Tbilisi","district":"vake","lat":41.70611,"lon":44.77108,"rating":9.6},{"id":394,"name":"King Doner","address":"PQFF+8W8 Tbilisi, Tbilisi","district":"tbilisi","lat":41.72329,"lon":44.77483,"rating":null},{"id":395,"name":"მეფე და ჩიტი","address":"თაბუკაშვილის ქუჩა 29, თბილისი","district":"old_town","lat":41.70224,"lon":44.79651,"rating":null},{"id":396,"name":"KITAYKA","address":"Chavchavadze Ave 19, Tbilisi","district":"vake","lat":41.70987,"lon":44.77031,"rating":9.0},{"id":397,"name":"Kitch Bistro","address":"3 Revaz Tabukashvili Street, Tbilisi","district":"old_town","lat":41.69811,"lon":44.80177,"rating":8.4},{"id":398,"name":"Kiwi Vegan Cafe","address":"6 Ivane Machabeli St, თბილისი","district":"sololaki","lat":41.69191,"lon":44.80028,"rating":9.6},{"id":399,"name":"Kintaro Sushi","address":"10 წყნეთის გზატკეცილი, თბილისი","district":"vake","lat":41.70984,"lon":44.73201,"rating":null},{"id":400,"name":"Korchma","address":"GIorgi Akhvlediani St 16, Tbilisi","district":"old_town","lat":41.70631,"lon":44.78929,"rating":9.2},{"id":401,"name":"Kranchy Kavtaradze","address":"33n Petre Kavtaradze St, თბილისი","district":"saburtalo","lat":41.72106,"lon":44.72656,"rating":9.2},{"id":402,"name":"Kranchy Kostava","address":"PQCH+32C, Tbilisi","district":"tbilisi","lat":41.72019,"lon":44.77752,"rating":9.0},{"id":403,"name":"Kurosawa Sushi","address":"14 Korneli Kekelidze St, T&apos;bilisi, თბილისი","district":"old_town","lat":41.7066,"lon":44.77797,"rating":7.8},{"id":404,"name":"Kurosawa Sushi Vazisubani","address":"niko muskhelishvili 26 st, თბილისი","district":"samgori","lat":41.69896,"lon":44.85185,"rating":9.0},{"id":405,"name":"Kvebis Sakhli Maisuradze","address":"1 Stepan Chrelashvili, Tbilisi","district":"isani","lat":41.6832,"lon":44.83924,"rating":9.2},{"id":406,"name":"Kvelaperi Makalze","address":"16 Kalaubani Str, თბილისი","district":"samgori","lat":41.68928,"lon":44.87603,"rating":null},{"id":407,"name":"La Crosta","address":"39 Pekini Street, Tbilisi","district":"saburtalo","lat":41.72898,"lon":44.76828,"rating":9.6},{"id":408,"name":"La Gamba","address":"4 Iakob Nikoladze , Tbilisi","district":"old_town","lat":41.71057,"lon":44.78332,"rating":9.2},{"id":409,"name":"La Nostra Casa","address":"127 Shalva Nutsubidze St, Tbilisi","district":"saburtalo","lat":41.72784,"lon":44.73311,"rating":8.8},{"id":410,"name":"ლარტ დუ გემო","address":"PQM9+MW Tbilisi, თბილისი","district":"tbilisi","lat":41.73419,"lon":44.76981,"rating":9.8},{"id":411,"name":"Lava Burger","address":"Davit Aghmashenebeli Ave, N86, თბილისი","district":"old_town","lat":41.70904,"lon":44.79719,"rating":7.6},{"id":412,"name":"Lava Shaurma","address":"Vazha-Pshavela ave. 60, თბილისი","district":"saburtalo","lat":41.72474,"lon":44.74054,"rating":8.6},{"id":413,"name":"Lavanda Café","address":"MVM5+CM Tbilisi, Tbilisi","district":"tbilisi","lat":41.68356,"lon":44.85919,"rating":9.6},{"id":414,"name":"Lavera","address":"Gogebashvili 46b  Street , Tbilisi","district":"old_town","lat":41.70341,"lon":44.78116,"rating":9.4},{"id":415,"name":"Le Gato Kazbegi","address":"24 Kazbegi, Tbilisi","district":"saburtalo","lat":41.72391,"lon":44.74709,"rating":9.0},{"id":416,"name":"Le Gato Pekini","address":"25 Pekini str, თბილისი","district":"saburtalo","lat":41.72454,"lon":44.77169,"rating":9.2},{"id":417,"name":"Leafy","address":"PPFP+9GW Tbilisi, თბილისი","district":"tbilisi","lat":41.72349,"lon":44.73633,"rating":6.2},{"id":418,"name":"Station1984","address":"Davit Aghmashenebeli Ave 80, თბილისი","district":"old_town","lat":41.70818,"lon":44.79809,"rating":9.2},{"id":419,"name":"Leila's Plov House","address":"8 Ivane Javakhishvili St, Tbilisi 0108, Tbilisi","district":"old_town","lat":41.7032,"lon":44.80612,"rating":8.6},{"id":420,"name":"Lejak","address":"2 Simon Kandelaki Street, თბილისი","district":"saburtalo","lat":41.73097,"lon":44.7685,"rating":8.8},{"id":421,"name":"Limoncello","address":"88 Nutsubidze Street, Tbilisi","district":"saburtalo","lat":41.72612,"lon":44.72558,"rating":9.0},{"id":422,"name":"დრაკაი","address":"12 Erekle Tatishvili St, თბილისი","district":"old_town","lat":41.70637,"lon":44.7844,"rating":9.4},{"id":423,"name":"Liv By Alfredo","address":"ეს არის ვირტუალური რესტორანი, თბილისი","district":"isani","lat":41.69108,"lon":44.84202,"rating":9.6},{"id":424,"name":"Localino Saburtalo","address":"kazbegi 19 , თბილისი","district":"saburtalo","lat":41.72592,"lon":44.7609,"rating":9.6},{"id":425,"name":"Localino Vake","address":"Z. Paliashvili street 14, Tbilisi","district":"vake","lat":41.70794,"lon":44.77518,"rating":9.0},{"id":426,"name":"Lolita","address":"Tamar Chovelidze st. 7, თბილისი","district":"old_town","lat":41.70569,"lon":44.78686,"rating":9.2},{"id":427,"name":"Los Amigos","address":"Taktakishvili 3/43, თბილისი","district":"vake","lat":41.70908,"lon":44.76448,"rating":9.4},{"id":428,"name":"Luciano Pizza/Pasta Bazari Orbeliani","address":"3 Vekua Street, Tbilisi","district":"old_town","lat":41.69748,"lon":44.80404,"rating":9.2},{"id":429,"name":"Lui Coffee","address":"23-23a Ilia Chavchavadze Avenue, Tbilisi","district":"vake","lat":41.71001,"lon":44.76821,"rating":9.4},{"id":430,"name":"ლუნა პიცა ბარი","address":"Chavchavadze avenue 37L, თბილისი","district":"vake","lat":41.71192,"lon":44.75704,"rating":9.4},{"id":431,"name":"Lunch Qokhi","address":"4 Karaleti Street, Tbilisi","district":"didube","lat":41.74972,"lon":44.77677,"rating":9.0},{"id":432,"name":"Lunch Time","address":"Aslanidi 20 Str, Tbilisi","district":"vake","lat":41.71892,"lon":44.78116,"rating":9.4},{"id":433,"name":"Lurji Bistro","address":"Tbilisi, Atoneli street 20, Tbilisi","district":"old_town","lat":41.69866,"lon":44.80294,"rating":null},{"id":434,"name":"Mac & Cheese","address":"18 Paliashvil St , თბილისი","district":"samgori","lat":41.69784,"lon":44.85628,"rating":9.2},{"id":435,"name":"Machakhela Samikitno Kostava","address":"77 Kostava Street, თბილისი","district":"saburtalo","lat":41.72463,"lon":44.77707,"rating":9.0},{"id":436,"name":"Machakhela Samikitno Varketili","address":"13, Javakheti Street, Tbilisi","district":"nadzaladevi","lat":41.82635,"lon":44.81462,"rating":8.6},{"id":437,"name":"Madre","address":"5 Besiki Square, Tbilisi","district":"mtatsminda","lat":41.69608,"lon":44.79328,"rating":8.6},{"id":438,"name":"Magistros","address":"1 Pkhovi Street, თბილისი","district":"old_town","lat":41.69816,"lon":44.80243,"rating":null},{"id":439,"name":"Maharajah Indian Halal Restaurant","address":"22 Ovanes Tumaniani Street, Sherdani, Tbilisi., თბილისი","district":"old_town","lat":41.68994,"lon":44.80855,"rating":8.0},{"id":440,"name":"Mai Thai Restaurant","address":"3 Pkhovi St, თბილისი","district":"old_town","lat":41.69808,"lon":44.80309,"rating":9.2},{"id":441,"name":"Mainz Shawarma","address":"Tsereteli avenue  n 2 a, Tbilisi","district":"chugureti","lat":41.73403,"lon":44.78382,"rating":8.8},{"id":442,"name":"Makalze","address":"Tamarashvili Ave. 11, Tbilisi","district":"saburtalo","lat":41.72108,"lon":44.74612,"rating":9.4},{"id":443,"name":"Makbechine","address":"1/8 Odesa St, Tbilisi","district":"saburtalo","lat":41.7337,"lon":44.7668,"rating":8.6},{"id":444,"name":"Maki-N-Sushi","address":"14 Korneli Kekelidze St, T&apos;bilisi, Tbilisi","district":"old_town","lat":41.7066,"lon":44.77797,"rating":8.2},{"id":445,"name":"Maki-N-Sushi Vazisubani","address":"Niko Muskhelishvili st 26, თბილისი","district":"samgori","lat":41.69896,"lon":44.85185,"rating":8.8},{"id":446,"name":"Makine","address":"1 Elene Akhvlediani Khevi, Tbilisi","district":"old_town","lat":41.69837,"lon":44.81007,"rating":5.0},{"id":447,"name":"Makola","address":"Tbilisi, right bank, under Marjanishvili Bridge, თბილისი","district":"samgori","lat":41.67014,"lon":44.85247,"rating":9.4},{"id":448,"name":"Mama Burger","address":"4 Mikheil Lermontovi St, თბილისი","district":"sololaki","lat":41.69108,"lon":44.80261,"rating":9.4},{"id":449,"name":"Mamber","address":"ჯორჯ ბუშის 7, თბილისი","district":"old_town","lat":41.6881,"lon":44.80718,"rating":9.2},{"id":450,"name":"Manano Family Food","address":"61 Tsotne Dadiani St, Tbilisi","district":"nadzaladevi","lat":41.72646,"lon":44.79956,"rating":9.6},{"id":451,"name":"Maneki Sushi","address":"71 Merab Kostava St, თბილისი","district":"vake","lat":41.7173,"lon":44.7792,"rating":9.2},{"id":452,"name":"Mangali","address":"PR3X+GP2, თბილისი","district":"tbilisi","lat":41.70376,"lon":44.84927,"rating":9.0},{"id":453,"name":"Margaliti Collection","address":"1 Vasil Petriashvili Str, თბილისი","district":"old_town","lat":41.70856,"lon":44.78075,"rating":9.2},{"id":454,"name":"Marge Dadiani","address":"26 Tsotne Dadiani St, T&apos;bilisi , Tbilisi","district":"nadzaladevi","lat":41.72834,"lon":44.79783,"rating":8.8},{"id":455,"name":"Marge Saburtalo","address":"69 Merab Kostava St, თბილისი","district":"old_town","lat":41.71222,"lon":44.78517,"rating":8.8},{"id":456,"name":"Marili","address":"MRHG+XP Tbilisi, თბილისი","district":"tbilisi","lat":41.67994,"lon":44.82681,"rating":9.0},{"id":457,"name":"Marimano","address":"20 Kazbegi St, თბილისი","district":"saburtalo","lat":41.72425,"lon":44.75036,"rating":7.6},{"id":458,"name":"Marjo's meqsikuri N1 Marjanishvili","address":"Kote marjanishvili 32, Tbilisi","district":"nadzaladevi","lat":41.80984,"lon":44.82569,"rating":9.0},{"id":459,"name":"Marjo's Meqsikuri N1 Tsereteli","address":"Tsereteli Ave, თბილისი","district":"chugureti","lat":41.73403,"lon":44.78382,"rating":9.0},{"id":460,"name":"Mashaallah Indian Tandoori Restaurant","address":"3 Gia Tetelashvili Street, თბილისი","district":"old_town","lat":41.71079,"lon":44.79509,"rating":7.6},{"id":461,"name":"Maspindzelo","address":"7 Gorgasali Street, Tbilisi","district":"old_town","lat":41.68895,"lon":44.81271,"rating":8.8},{"id":462,"name":"Maspindzelo Express","address":"20 Giorgi Akhvlediani St, თბილისი","district":"old_town","lat":41.70658,"lon":44.78892,"rating":9.4},{"id":463,"name":"Matata","address":"7 Samtredia St, თბილისი","district":"didube","lat":41.74361,"lon":44.77733,"rating":9.2},{"id":464,"name":"Istanbul Döner Halal Shaurma Liberty Square","address":"Aleksandr Pushkini St 13, თბილისი","district":"sololaki","lat":41.69436,"lon":44.8025,"rating":8.6},{"id":465,"name":"Istanbul Döner Halal Shaurma Marjanishvili","address":"DaviT Aghmashenebeli Ave N104, Tbilisi","district":"old_town","lat":41.71186,"lon":44.79561,"rating":8.4},{"id":466,"name":"McDonald's Galleria Tbilisi","address":"2/4 Shota Rustaveli Ave, თბილისი","district":"sololaki","lat":41.69437,"lon":44.79984,"rating":8.8},{"id":467,"name":"McDonald's Rustaveli","address":"1 Dzmebi Kakabadzeebi St, თბილისი","district":"old_town","lat":41.70351,"lon":44.78984,"rating":8.4},{"id":468,"name":"McDonald's Saburtalo","address":"69 Merab Kostava st., Tbilisi","district":"vake","lat":41.71593,"lon":44.77927,"rating":8.4},{"id":469,"name":"SADA by Ketomania","address":"9b Nikolioz Kipshidze St, Tbilisi","district":"vake","lat":41.71581,"lon":44.76039,"rating":9.4},{"id":470,"name":"Meaty Burger","address":"ჯორჯ ბუშის ქუჩა 7, თბილისი","district":"isani","lat":41.69112,"lon":44.83661,"rating":9.2},{"id":471,"name":"Megobari Kitchen Bazari Orbeliani","address":"3a Vekua Street, თბილისი","district":"old_town","lat":41.69748,"lon":44.80404,"rating":9.4},{"id":472,"name":"Megrili Shawarma","address":"99 Nikoloz Khudadovi St, თბილისი","district":"nadzaladevi","lat":41.72999,"lon":44.8295,"rating":7.0},{"id":473,"name":"Megruli Ambe","address":"Mosashvili 13, Tbilisi","district":"vake","lat":41.71094,"lon":44.75321,"rating":9.2},{"id":474,"name":"Megruli Sakhli","address":"31 Atoneli St, თბილისი","district":"old_town","lat":41.70016,"lon":44.80192,"rating":9.2},{"id":475,"name":"Mekhi Tbilisi","address":"Mirotadze St, N2b, თბილისი","district":"saburtalo","lat":41.72172,"lon":44.78028,"rating":9.0},{"id":476,"name":"Mela Vazha Pshavela","address":"Vazha Pshavela Ave 59, თბილისი","district":"saburtalo","lat":41.72471,"lon":44.73771,"rating":9.6},{"id":477,"name":"Mela","address":". balanchivadze 17 , dolidze 24, Tbilisi","district":"vake","lat":41.71675,"lon":44.77448,"rating":9.8},{"id":478,"name":"Merdini - Gurmania Vazha-pshavela","address":"100 Vazha Pshavela, Tbilisi","district":"saburtalo","lat":41.72254,"lon":44.7198,"rating":9.4},{"id":479,"name":"Meskhetis Guli Bazari Orbeliani","address":"Vekua St, N3a, Tbilisi","district":"old_town","lat":41.69723,"lon":44.80337,"rating":7.8},{"id":480,"name":"Mevele","address":"20 Mevele Street, თბილისი","district":"samgori","lat":41.68082,"lon":44.85423,"rating":null},{"id":481,"name":"Mezze By Alfredo","address":"31st Abashidze., Tbilisi","district":"vake","lat":41.70786,"lon":44.76377,"rating":9.6},{"id":482,"name":"მიკელ ქოფი","address":"26 Ilia Chavchavadze Ave, თბილისი","district":"vake","lat":41.70868,"lon":44.77259,"rating":9.0},{"id":483,"name":"Mimiko’s Kitchen","address":"Vekua Street 3, Bazari Orbeliani, Tbilisi, Tbilisi","district":"old_town","lat":41.69781,"lon":44.80417,"rating":8.8},{"id":484,"name":"მიმინო","address":"Pekini St 2, თბილისი","district":"vake","lat":41.71069,"lon":44.73416,"rating":8.4},{"id":485,"name":"Minda Cafe","address":"Pushkini st. 10, Tbilisi","district":"old_town","lat":41.69625,"lon":44.80273,"rating":null},{"id":486,"name":"Ming Lounge & Terrace at Wyndham","address":"3 L.Gudiashvili street, Tbilisi","district":"old_town","lat":41.69591,"lon":44.80144,"rating":8.4},{"id":487,"name":"Mini Dubai","address":"Shartava 2, Saakadze Square, Tbilisi, თბილისი","district":"saburtalo","lat":41.72459,"lon":44.77571,"rating":8.4},{"id":488,"name":"Mint","address":"Vasil petriashvili 1 , Tbilisi","district":"old_town","lat":41.70856,"lon":44.78075,"rating":8.8},{"id":489,"name":"Mirai Vake","address":"This is a virtual venue, Tbilisi","district":"didi_digomi","lat":41.6938,"lon":44.80152,"rating":9.2},{"id":490,"name":"M&M Grill","address":"Aghmashenebeli Ave.195, თბილისი","district":"old_town","lat":41.72114,"lon":44.78986,"rating":9.4},{"id":491,"name":"Mochi","address":"65 Zakaria Paliashvili Street, თბილისი","district":"vake","lat":41.70989,"lon":44.7576,"rating":9.0},{"id":492,"name":"Monday Greens","address":"abashidze st 21/23, თბილისი","district":"vake","lat":41.70763,"lon":44.76944,"rating":8.4},{"id":493,"name":"Monti Pizza","address":"82 Ketevan Dedofali Ave, Tbilisi,, თბილისი","district":"isani","lat":41.68734,"lon":44.83278,"rating":9.8},{"id":494,"name":"Moonlight Coffee","address":"17B Guramishvili Avenue, Tbilisi","district":"nadzaladevi","lat":41.75864,"lon":44.7893,"rating":null},{"id":495,"name":"Mordu","address":"43 Ivane Javakhishvili St, თბილისი","district":"old_town","lat":41.70821,"lon":44.8029,"rating":null},{"id":496,"name":"Mova Maisi","address":"Toradze st. 9 Dead end , Tbilisi","district":"outer","lat":41.68666,"lon":44.77051,"rating":9.0},{"id":497,"name":"Mozaiko Sushi","address":"17 Ioane Shavteli St, თბილისი","district":"old_town","lat":41.69612,"lon":44.80667,"rating":9.6},{"id":498,"name":"Mozzo Mozzo","address":"Tamar Chovelidze St 10, Tbilisi","district":"old_town","lat":41.70479,"lon":44.78664,"rating":8.8},{"id":499,"name":"Mr gree","address":"172 Javakheti Str, Tbilisi","district":"samgori","lat":41.69754,"lon":44.86955,"rating":8.8},{"id":500,"name":"Mtabarshi","address":"KIPSHIDZE 9 B, Tbilisi","district":"vake","lat":41.71581,"lon":44.76039,"rating":9.2},{"id":501,"name":"Mtabarshi Kosmonavtebi","address":"PQJG+J84 Tbilisi, თბილისი","district":"tbilisi","lat":41.73151,"lon":44.77583,"rating":null},{"id":502,"name":"Mtsvadis Samkaro","address":"16 Teopane Davitaia St, T&apos;bilisi , თბილისი","district":"isani","lat":41.70447,"lon":44.84753,"rating":9.0},{"id":503,"name":"Mugsy's Burger Vera","address":"8/2 Melikishvili Street, თბილისი","district":"old_town","lat":41.70703,"lon":44.78509,"rating":9.2},{"id":504,"name":"Munchies By Foodgoddess","address":"Paliashvili st. 2, Tbilisi","district":"vake","lat":41.70815,"lon":44.77724,"rating":9.0},{"id":505,"name":"The Museum","address":"7, Rustaveli Avenue, თბილისი","district":"mtatsminda","lat":41.69726,"lon":44.79962,"rating":9.2},{"id":506,"name":"Mushu","address":"PQCG+MQ Tbilisi, თბილისი","district":"tbilisi","lat":41.72169,"lon":44.77694,"rating":8.8},{"id":507,"name":"Mutcha-Mutcha Retro Dolidze","address":"4 Viktor Dolidze St, Tbilisi, თბილისი","district":"vake","lat":41.71707,"lon":44.77358,"rating":8.2},{"id":508,"name":"My Boba Bubble Tea Vake","address":"Chavchavadze 7, Tbilisi","district":"vake","lat":41.70948,"lon":44.77503,"rating":9.2},{"id":509,"name":"Myata Signature","address":"1 Pkhovi St, თბილისი","district":"old_town","lat":41.69816,"lon":44.80243,"rating":9.2},{"id":510,"name":"Mziuri Buffet","address":"2 Chabua Amirejibi Hwy, Tbilisi","district":"vake","lat":41.71165,"lon":44.77616,"rating":9.2},{"id":511,"name":"Najma Thai Restaurant","address":"G. Akhvlediani 14, Tbilisi","district":"old_town","lat":41.69747,"lon":44.81196,"rating":9.4},{"id":512,"name":"Nakverchkhali","address":"PQJM+42 Tbilisi, Tbilisi","district":"tbilisi","lat":41.73031,"lon":44.78256,"rating":9.4},{"id":513,"name":"ნამასტე ინდია თბილისი","address":"Nadzaladevi, Giorgi saakadze st. 156 javi street, first floor, N2 Giorgi Saakadze 156, Tbilisi , თბილისი","district":"nadzaladevi","lat":41.74183,"lon":44.79501,"rating":7.2},{"id":514,"name":"Nanami Galleria","address":"2/4 Shota Rustaveli Ave, თბილისი","district":"sololaki","lat":41.69437,"lon":44.79984,"rating":9.2},{"id":515,"name":"Nanami Isani","address":"47 Atskuri St, Tbilisi","district":"isani","lat":41.6882,"lon":44.84045,"rating":9.2},{"id":516,"name":"Nanami","address":"3 Tandzia St, თბილისი","district":"saburtalo","lat":41.72382,"lon":44.75939,"rating":9.0},{"id":517,"name":"Napoli","address":"10 Marijani Street, Tbilisi","district":"outer","lat":41.65736,"lon":44.74722,"rating":9.4},{"id":518,"name":"Nasimi","address":"116 Davit Aghmashenebeli Avenue, Tbilisi","district":"old_town","lat":41.71144,"lon":44.79543,"rating":8.8},{"id":519,"name":"Nero Burger Bar","address":"Irakli Abashidze St, 22, Tbilisi","district":"vake","lat":41.70721,"lon":44.76953,"rating":9.2},{"id":520,"name":"New Istanbul","address":"28 Pekini , თბილისი","district":"saburtalo","lat":41.72485,"lon":44.7705,"rating":8.4},{"id":521,"name":"New York Style Burger Aghmashenebeli","address":"D. Aghmashenebeli Ave, N 189 , Tbilisi","district":"old_town","lat":41.7203,"lon":44.78989,"rating":8.6},{"id":522,"name":"New York Style Burger Isani","address":"MRQM+55G, Tbilisi","district":"tbilisi","lat":41.68794,"lon":44.83295,"rating":9.0},{"id":523,"name":"Nick's Famous Hamburger Isani","address":"MRQM+55G , Tbilisi","district":"tbilisi","lat":41.68794,"lon":44.83295,"rating":8.6},{"id":524,"name":"Halal Nina and Benny's Cafe","address":"23 Lami St, თბილისი","district":"chugureti","lat":41.70845,"lon":44.81043,"rating":7.4},{"id":525,"name":"No More Mondays","address":"n21 Merab Kostava St , , თბილისი","district":"saburtalo","lat":41.80179,"lon":44.76127,"rating":9.2},{"id":526,"name":"Number 8 Craft Beer Club","address":"22 Irakli Abashidze Street , Tbilisi","district":"vake","lat":41.70721,"lon":44.76953,"rating":9.2},{"id":527,"name":"NUR Coffee Shop","address":"Lado Kavsadze St 7, თბილისი","district":"vake","lat":41.70871,"lon":44.76141,"rating":9.8},{"id":528,"name":"Nushebi","address":"51 Simon Chikovani St, თბილისი","district":"vake","lat":41.71478,"lon":44.77229,"rating":9.2},{"id":529,"name":"Octopus Restaurant","address":"17 C BUILDING ,DIRSI ,ISANI 41°40&apos;21.8&quot;N 44°51&apos;17.0&quot;E, თბილისი","district":"avlabari","lat":41.69069,"lon":44.8157,"rating":9.0},{"id":530,"name":"Odesa by Inna Bebo","address":"22 Amaghleba St, Tbilisi","district":"sololaki","lat":41.68949,"lon":44.79338,"rating":9.4},{"id":531,"name":"Odjaleche House Restaurant","address":"N21-23 Rustaveli Avenue, Tbilisi","district":"mtatsminda","lat":41.6998,"lon":44.79682,"rating":null},{"id":532,"name":"Oishi Sushi Saburtalo","address":"37 Alexander Kazbegi Ave, თბილისი","district":"saburtalo","lat":41.7246,"lon":44.74787,"rating":9.0},{"id":533,"name":"Ok Shawarma Nakverchkhalze Saburtalo","address":"Iona Vakeli St 27, Tbilisi","district":"saburtalo","lat":41.72866,"lon":44.75922,"rating":8.6},{"id":534,"name":"Ok Shawarma Nakverchkhalze","address":"Tsereteli Ave 22, თბილისი","district":"chugureti","lat":41.72887,"lon":44.78735,"rating":8.2},{"id":535,"name":"Old Baraqa","address":"28 Ilia Chavchavadze Avenue, Tbilisi","district":"vake","lat":41.70861,"lon":44.77193,"rating":9.2},{"id":536,"name":"Oldenburg","address":"1 Mtkvari street, Tbilisi","district":"old_town","lat":41.69806,"lon":44.80474,"rating":8.4},{"id":537,"name":"Oldenburg Saburtalo","address":"Kazbegi Avenue 53, თბილისი","district":"saburtalo","lat":41.72396,"lon":44.74067,"rating":8.6},{"id":538,"name":"Olio Pizza Napoletana","address":"PPFH+XJ Tbilisi, თბილისი","district":"tbilisi","lat":41.72494,"lon":44.72906,"rating":9.4},{"id":539,"name":"Onigiri","address":"38 Aghmashenebeli Ave.,, თბილისი","district":"old_town","lat":41.70459,"lon":44.80139,"rating":9.6},{"id":540,"name":"Ono Restaurant","address":"45a Merab Kostava, თბილისი","district":"old_town","lat":41.70891,"lon":44.7855,"rating":9.6},{"id":541,"name":"Ori Katkha","address":"52 N. Victor Kupradze, Tbilisi","district":"samgori","lat":41.70862,"lon":44.87131,"rating":8.4},{"id":542,"name":"Pad Thai","address":"1/6,Ivane Machabeli St, Tbilisi","district":"sololaki","lat":41.69191,"lon":44.80028,"rating":9.2},{"id":543,"name":"Pakistani Food & Juice Bar","address":"Rome,st, 31 Davit Aghmashenebeli Ave, Tbilisi 1111, Tbilisi","district":"old_town","lat":41.70418,"lon":44.80254,"rating":8.0},{"id":544,"name":"Palmebi By Honoré","address":"Constitution street 4, Tbilisi","district":"old_town","lat":41.71675,"lon":44.79744,"rating":8.0},{"id":545,"name":"Panuozzo By Pomodorissimo","address":"7E tsotne dadiani str PR93+J2 Tbilisi, Tbilisi","district":"chugureti","lat":41.71911,"lon":44.80259,"rating":8.6},{"id":546,"name":"P'arizhank'a","address":"PR42+FF Tbilisi, Tbilisi","district":"tbilisi","lat":41.70619,"lon":44.80119,"rating":null},{"id":547,"name":"Pasanauri Dolidze","address":"2 Viktor Dolidze St, Tbilisi","district":"vake","lat":41.71634,"lon":44.76834,"rating":9.2},{"id":548,"name":"Pasanauri Griboedovi","address":"37 Griboedobvi str, Tbilisi","district":"old_town","lat":41.70439,"lon":44.80221,"rating":9.4},{"id":549,"name":"Pasanauri Kazbegi","address":"Al Kazbegi 42, თბილისი","district":"saburtalo","lat":41.72321,"lon":44.74006,"rating":9.0},{"id":550,"name":"Pasta Mania Aghmashenebeli","address":"PQ5X+G3V Tbilisi, Tbilisi","district":"tbilisi","lat":41.70886,"lon":44.79767,"rating":8.6},{"id":551,"name":"Pastachi","address":"Aghmashenebeli St 107, Tbilisi","district":"tbilisi","lat":41.79057,"lon":45.00218,"rating":8.8},{"id":552,"name":"Pastachi Rustaveli","address":"Rustaveli Ave 16, თბილისი","district":"mtatsminda","lat":41.69939,"lon":44.79678,"rating":8.8},{"id":553,"name":"PastaMania Bazari Orbeliani","address":"3 Vekua Str, Tbilisi","district":"old_town","lat":41.69748,"lon":44.80404,"rating":9.0},{"id":554,"name":"Pasticceria","address":"77 ფალიაშვილის ქუჩა, Tbilisi","district":"vake","lat":41.7099,"lon":44.75615,"rating":9.0},{"id":555,"name":"PAUL Abashidze","address":"26 Irakli Abashidze Street, Tbilisi","district":"vake","lat":41.70746,"lon":44.76751,"rating":9.6},{"id":556,"name":"PAUL Kazbegi","address":"15 Alexander Kazbegi Ave, თბილისი","district":"saburtalo","lat":41.72633,"lon":44.76264,"rating":9.2},{"id":557,"name":"PAUL Paliashvili","address":"85/87 Zakaria Paliashvili Street, Tbilisi","district":"vake","lat":41.71023,"lon":44.75417,"rating":9.0},{"id":558,"name":"PAUL Ramishvili","address":"Ramishvili street 37, თბილისი","district":"vake","lat":41.71175,"lon":44.77407,"rating":9.2},{"id":559,"name":"PAUL Tabidze","address":"3/5 Galaktion Tabidze Street, Tbilisi","district":"sololaki","lat":41.69228,"lon":44.801,"rating":9.4},{"id":560,"name":"Pause","address":"Tbilisi town, Nino Ramishvili, II dead end, N2, თბილისი","district":"vake","lat":41.71103,"lon":44.76847,"rating":8.4},{"id":561,"name":"Pazza Saburtalo","address":"ეს არის ვირტუალური რესტორანი, თბილისი","district":"isani","lat":41.69108,"lon":44.84202,"rating":9.2},{"id":562,"name":"Pazza Sololaki","address":"ეს არის ვირტუალური რესტორანი, თბილისი","district":"isani","lat":41.69108,"lon":44.84202,"rating":8.6},{"id":563,"name":"Pelagoni Saburtalo","address":"Kalistrate Kutateladze Street 8, თბილისი","district":"saburtalo","lat":41.7222,"lon":44.74331,"rating":9.0},{"id":564,"name":"Perogico","address":"Tengiz Abuladze St 34, Tbilisi","district":"vake","lat":41.71191,"lon":44.75991,"rating":9.4},{"id":565,"name":"PHILALOVERS: Sushi and Bowls","address":"6-4 Mitropan Laghidze St, T&apos;bilisi, Tbilisi","district":"mtatsminda","lat":41.69973,"lon":44.7957,"rating":null},{"id":566,"name":"PHO Asian Food Bakhtrioni","address":"11b Bakhtrioni St, თბილისი","district":"saburtalo","lat":41.72088,"lon":44.76916,"rating":8.8},{"id":567,"name":"Tasca pizza","address":"პეტრიაშვილის ქუჩა .#1 ღვინის ქარხანა, თბილისი","district":"old_town","lat":41.70852,"lon":44.78113,"rating":9.2},{"id":568,"name":"Piacere","address":"Simon Janashia St, N21, Tbilisi","district":"old_town","lat":41.70673,"lon":44.78172,"rating":9.4},{"id":569,"name":"Picasso","address":"4 miminoshvili street, თბილისი","district":"old_town","lat":41.70653,"lon":44.7886,"rating":9.2},{"id":570,"name":"Picasso Meidanze","address":"Gorgasali street 1, Tbilisi","district":"old_town","lat":41.68978,"lon":44.80954,"rating":8.6},{"id":571,"name":"Pikanti","address":"62 Chavchavadze Avenue, თბილისი","district":"vake","lat":41.71033,"lon":44.7593,"rating":9.6},{"id":572,"name":"Pinky Pan","address":"42 Abashidze St , თბილისი","district":"vake","lat":41.70772,"lon":44.76339,"rating":9.4},{"id":573,"name":"Pipes Burger","address":"8 Egnate Ninoshvili St, თბილისი","district":"old_town","lat":41.70967,"lon":44.80249,"rating":9.4},{"id":574,"name":"Pirosmanis Dukani Leselidze","address":"Kote Abkhazi St 4, თბილისი","district":"old_town","lat":41.69212,"lon":44.8064,"rating":8.4},{"id":575,"name":"Pirosmanis Dukani Orbeliani","address":"Atoneli St 9, Tbilisi","district":"old_town","lat":41.69816,"lon":44.80431,"rating":9.4},{"id":576,"name":"Pita Lab","address":"19/21 Pavle Aslanidi st, თბილისი","district":"vake","lat":41.71873,"lon":44.78133,"rating":8.2},{"id":577,"name":"PIZZA24.GE Chugureti","address":"22 Arnold Chikobava St, თბილისი","district":"old_town","lat":41.70745,"lon":44.80475,"rating":8.6},{"id":578,"name":"PIZZA24.GE Isani","address":"65 Ketevan Tsamebuli Ave, თბილისი","district":"avlabari","lat":41.69063,"lon":44.81746,"rating":8.6},{"id":579,"name":"PIZZA24.GE Saburtalo","address":"2 Marshal Archil Gelovani Ave, Tbilisi","district":"saburtalo","lat":41.75818,"lon":44.76828,"rating":8.4},{"id":580,"name":"Pizza & Bakery","address":"PQ72+39 Tbilisi, Tbilisi","district":"tbilisi","lat":41.71269,"lon":44.75094,"rating":null},{"id":581,"name":"პიცა ბაზილიკო","address":"Korneli Chaladzis St , N 13, თბილისი","district":"nadzaladevi","lat":41.80659,"lon":44.82828,"rating":8.8},{"id":582,"name":"Pizza by Goodwill Saburtalo","address":"1 Petre Kavtaradze Street, Tbilisi","district":"saburtalo","lat":41.72454,"lon":44.73885,"rating":9.4},{"id":583,"name":"Pizza Di Roma Kavtaradze City Mall","address":"1 Petre Kavtaradze St, თბილისი","district":"saburtalo","lat":41.72454,"lon":44.73885,"rating":9.0},{"id":584,"name":"Pizza Di Roma Aghmashenebeli","address":"147 Davit Aghmashenebeli Ave, თბილისი","district":"old_town","lat":41.71685,"lon":44.79328,"rating":9.0},{"id":585,"name":"Pizza Di Roma Guramishvili","address":"30 David Guramishvili Ave , თბილისი","district":"nadzaladevi","lat":41.76253,"lon":44.78785,"rating":8.8},{"id":586,"name":"Pizza Di Roma Avlabari","address":"2 Ketevan Tsamebuli Ave, Tbilisi","district":"avlabari","lat":41.69275,"lon":44.81562,"rating":9.0},{"id":587,"name":"Pizza Di Roma Kostava","address":"76 merab kostava, Tbilisi","district":"saburtalo","lat":41.72265,"lon":44.77682,"rating":9.0},{"id":588,"name":"Pizza Di Roma Rustaveli","address":"Rustaveli ave. 36, თბილისი","district":"old_town","lat":41.70151,"lon":44.79408,"rating":9.0},{"id":589,"name":"Pizza Hut Saburtalo","address":"Pavle Aslanidi 3, Tbilisi","district":"vake","lat":41.71813,"lon":44.77935,"rating":8.2},{"id":590,"name":"Pizza  Paragone","address":"76 Petre Kavtaradze St, თბილისი","district":"vake","lat":41.71991,"lon":44.71892,"rating":9.4},{"id":591,"name":"Pizza Paragone Isani","address":"84/86 Ketevan Dedofali Ave, თბილისი","district":"isani","lat":41.68723,"lon":44.83421,"rating":9.6},{"id":592,"name":"Pizza Pomodoro","address":"12 Bakhtrioni Street, თბილისი","district":"saburtalo","lat":41.72096,"lon":44.77192,"rating":8.2},{"id":593,"name":"Pizza Prime","address":"11 Mikheil Asatiani Street, თბილისი","district":"saburtalo","lat":41.72897,"lon":44.75009,"rating":9.0},{"id":594,"name":"Pizza Smile","address":"43 Vasil Koptsievi St, T&apos;bilisi, თბილისი","district":"samgori","lat":41.69102,"lon":44.85284,"rating":4.8},{"id":595,"name":"Pizza Spot","address":"12 Bakhtrioni Street, Tbilisi","district":"saburtalo","lat":41.72096,"lon":44.77192,"rating":7.8},{"id":596,"name":"Pizza Trentino","address":"12 Bakhtrioni Str, Tbilisi","district":"saburtalo","lat":41.72096,"lon":44.77192,"rating":8.4},{"id":597,"name":"PIZZA24.GE Vazha Pshavela","address":"90b Vazha-Pshavela ave, Tbilisi","district":"saburtalo","lat":41.72318,"lon":44.72543,"rating":8.4},{"id":598,"name":"Pizzalandia","address":"65 Vazha Pshavela Avenue, თბილისი","district":"saburtalo","lat":41.72436,"lon":44.73623,"rating":9.4},{"id":599,"name":"Pizza&Pasta Melikishvili","address":"Melikishvili 9, თბილისი","district":"old_town","lat":41.70797,"lon":44.78356,"rating":9.4},{"id":600,"name":"Plover.ge","address":"6 Simon Kandelaki St , Tbilisi","district":"saburtalo","lat":41.73034,"lon":44.76614,"rating":9.4},{"id":601,"name":"Poke Bar Isani","address":"MRPJ+V55, Ketevan Dedofali Ave, Tbilisi, თბილისი","district":"tbilisi","lat":41.68705,"lon":44.83456,"rating":9.4},{"id":602,"name":"Poke Bar Shankhai","address":"5 Giorgi Gegechkori St, თბილისი","district":"saburtalo","lat":41.7219,"lon":44.74002,"rating":9.4},{"id":603,"name":"Poke Man","address":"57a Vasil Barnov St, თბილისი","district":"old_town","lat":41.7055,"lon":44.78094,"rating":9.6},{"id":604,"name":"პოკე ვოკი საბურთალო","address":"Pavle Aslanidi St, N19/21, თბილისი","district":"vake","lat":41.71878,"lon":44.78127,"rating":8.0},{"id":605,"name":"Pokemon","address":"1/8 Odesa St, Tbilisi","district":"saburtalo","lat":41.7337,"lon":44.7668,"rating":9.0},{"id":606,"name":"Popolo Tbilisi","address":"8 Egnate Ninoshvili St, Tbilisi","district":"old_town","lat":41.70967,"lon":44.80249,"rating":9.4},{"id":607,"name":"Premium Sandwich","address":"Merab Aleksidzis St , თბილისი","district":"vake","lat":41.71721,"lon":44.7826,"rating":9.4},{"id":608,"name":"Prime Shawarma at Gastro Bazaar","address":"Tsintsadze St 12, Tbilisi","district":"saburtalo","lat":41.72188,"lon":44.76982,"rating":9.2},{"id":609,"name":"Prologue 1709","address":"MRV4+GW Tbilisi, თბილისი","district":"tbilisi","lat":41.69381,"lon":44.80731,"rating":null},{"id":610,"name":"Pub 44","address":"Zandukeli st. 22, თბილისი","district":"samgori","lat":41.69784,"lon":44.85628,"rating":9.8},{"id":611,"name":"Publica Cafe","address":"7, Rustaveli Avenue, თბილისი","district":"mtatsminda","lat":41.69726,"lon":44.79962,"rating":8.6},{"id":612,"name":"Puri Guliani","address":"Saarbrücken Square, Tbilisi","district":"old_town","lat":41.70281,"lon":44.80435,"rating":9.2},{"id":613,"name":"Puri Guliani Express","address":"Irakli Abashidze Street 37, Tbilisi","district":"vake","lat":41.70809,"lon":44.76367,"rating":9.4},{"id":614,"name":"Puroba Lisi","address":"Elguja Amashukeli Street N16, თბილისი","district":"saburtalo","lat":41.7332,"lon":44.74137,"rating":9.0},{"id":615,"name":"Qartlis Guli","address":"34 Pekini Ave, თბილისი","district":"saburtalo","lat":41.72573,"lon":44.76894,"rating":null},{"id":616,"name":"Qura Deli","address":"14 Irakli Abashidze Str, Tbilisi","district":"vake","lat":41.70716,"lon":44.7713,"rating":9.4},{"id":617,"name":"Qute's Shaurma Ortachala","address":"4, Vakhtang Gorgasali St, თბილისი","district":"isani","lat":41.68149,"lon":44.82426,"rating":8.8},{"id":618,"name":"Qute's Shaurma Saburtalo","address":"chabukiani st , Tbilisi","district":"old_town","lat":41.70913,"lon":44.79824,"rating":9.0},{"id":619,"name":"Rachvelebi Gamrekeli","address":"Davit Gamrekeli st. 1, Tbilisi","district":"saburtalo","lat":41.72129,"lon":44.77063,"rating":9.4},{"id":620,"name":"Rachvelebi Vazha-Pshavela","address":"64 Vazha-pshavela ave., Tbilisi","district":"saburtalo","lat":41.72691,"lon":44.7377,"rating":9.6},{"id":621,"name":"RadioCafe","address":"Atoneli St 29, Tbilisi","district":"old_town","lat":41.69985,"lon":44.80219,"rating":9.2},{"id":622,"name":"Rainbow Poke","address":"1/8 Odesa St, თბილისი","district":"saburtalo","lat":41.7337,"lon":44.7668,"rating":9.0},{"id":623,"name":"Rainbow Poke Vake","address":"Irakli Abashidze 58, Tbilisi","district":"vake","lat":41.70809,"lon":44.75905,"rating":9.0},{"id":624,"name":"Rainer's Cafe","address":"32 Barnovi st, Tbilisi","district":"old_town","lat":41.70359,"lon":44.78447,"rating":8.8},{"id":625,"name":"Ramekai Orbeliani","address":"1 Pkhovi Street , Tbilisi","district":"old_town","lat":41.69816,"lon":44.80243,"rating":9.4},{"id":626,"name":"Ramekai","address":"37 Ilia Chavchavadze Avenue, Tbilisi","district":"vake","lat":41.71183,"lon":44.75835,"rating":9.4},{"id":627,"name":"Ratto Bistro","address":"Vukol Beridze 9, Tbilisi","district":"sololaki","lat":41.69485,"lon":44.796,"rating":9.2},{"id":628,"name":"Realfood","address":"9 Sulkhanishvili Street, T&apos;bilisi 0108, თბილისი","district":"old_town","lat":41.69708,"lon":44.80455,"rating":null},{"id":629,"name":"Receptor Kandelaki","address":"51 Kandelaki Str, თბილისი","district":"saburtalo","lat":41.73061,"lon":44.76111,"rating":9.2},{"id":630,"name":"Receptor Pekini","address":"5 Pekini st, Tbilisi","district":"saburtalo","lat":41.72117,"lon":44.77561,"rating":9.4},{"id":631,"name":"Repeto","address":"კუს ტბის ქუჩა 1, Tbilisi","district":"vake","lat":41.70964,"lon":44.74218,"rating":8.8},{"id":632,"name":"Republic 24","address":"6 Rose Revolution Square, Tbilisi","district":"old_town","lat":41.70366,"lon":44.79166,"rating":9.0},{"id":633,"name":"Respublika Grill Bar","address":"19 Pavle Ingorokva St, თბილისი","district":"mtatsminda","lat":41.69624,"lon":44.79595,"rating":9.4},{"id":634,"name":"Restaurant Manufactura","address":"Viktor Jorbenadze 20, Tbilisi","district":"old_town","lat":41.69016,"lon":44.81478,"rating":null},{"id":635,"name":"Seoul Saburtalo","address":"7, Budapeshti St, Tbilisi","district":"saburtalo","lat":41.72955,"lon":44.76149,"rating":9.4},{"id":636,"name":"Restaurant Tchuri","address":"Tsinamdzgvrishvili St , N200, თბილისი","district":"old_town","lat":41.71349,"lon":44.79784,"rating":9.2},{"id":637,"name":"Restaurant Terrace","address":"118 Akaki Tsereteli Avenue, Tbilisi","district":"didube","lat":41.74087,"lon":44.77834,"rating":9.2},{"id":638,"name":"Restaurant Varazi","address":"1, ვარაზისხევი , Tbilisi","district":"old_town","lat":41.71157,"lon":44.78029,"rating":9.4},{"id":639,"name":"Retro Shaurma","address":"9 Samtredia St, Tbilisi","district":"didube","lat":41.74348,"lon":44.77716,"rating":9.2},{"id":640,"name":"Ribs & Puri","address":"20 Anton Purtseladze street, Tbilisi","district":"old_town","lat":41.69784,"lon":44.80274,"rating":9.4},{"id":641,"name":"Rigi Gastrodouqan","address":"Saarbrucken Square, Tbilisi","district":"old_town","lat":41.70281,"lon":44.80435,"rating":9.4},{"id":642,"name":"Rolling Sushi","address":"35 Pekini Ave, Tbilisi","district":"saburtalo","lat":41.72771,"lon":44.76858,"rating":9.2},{"id":643,"name":"Ronny's Pizza Vake","address":"7 Ilia Chavchavadze  Street, Tbilisi","district":"outer","lat":41.6869,"lon":44.77562,"rating":9.6},{"id":644,"name":"Rooster Grill Bar & Restaurant","address":"Dedaena Park, თბილისი","district":"old_town","lat":41.7008,"lon":44.80421,"rating":9.8},{"id":645,"name":"Royal Taj Indian Restaurant","address":"MRQ5+V7 Tbilisi, თბილისი","district":"tbilisi","lat":41.68969,"lon":44.80819,"rating":8.2},{"id":646,"name":"Rtveli","address":"118 Archil Mishveladze St, თბილისი","district":"vake","lat":41.70979,"lon":44.75392,"rating":9.4},{"id":647,"name":"Ruby Tbilisi","address":"Mitropane Laghidze St N3 , Tbilisi","district":"mtatsminda","lat":41.6998,"lon":44.7958,"rating":9.6},{"id":648,"name":"Brown's Bar","address":"Jerusalem Square 1 , თბილისი","district":"old_town","lat":41.69027,"lon":44.80602,"rating":9.6},{"id":649,"name":"Sabai Thai","address":"96 Paliashvili Street, თბილისი","district":"vake","lat":41.70952,"lon":44.75682,"rating":8.8},{"id":650,"name":"Sabatone Guramishvili","address":"QQ5Q+44 Tbilisi, Tbilisi","district":"tbilisi","lat":41.75781,"lon":44.78781,"rating":null},{"id":651,"name":"Sable Bagebi","address":"31 Tskneti Hwy, Tbilisi","district":"vake","lat":41.71042,"lon":44.73086,"rating":9.6},{"id":652,"name":"Sablee","address":"Kekelidze street 1 , Tbilisi","district":"vake","lat":41.70855,"lon":44.77842,"rating":9.4},{"id":653,"name":"Sachebureke N1 Pekini","address":"36 Pekini Ave, Tbilisi","district":"saburtalo","lat":41.72699,"lon":44.76836,"rating":9.2},{"id":654,"name":"Sakhachapure N1 Galleria Tbilisi","address":"2/4 Shota Rustaveli Ave, თბილისი","district":"sololaki","lat":41.69437,"lon":44.79984,"rating":8.8},{"id":655,"name":"Sakhli Veraze","address":"Kostava St 25, Tbilisi","district":"old_town","lat":41.7065,"lon":44.78751,"rating":9.0},{"id":656,"name":"საკუბდარე N1","address":"52/25 Ivane Javakhishvili St, თბილისი","district":"tbilisi","lat":42.31541,"lon":43.35689,"rating":8.6},{"id":657,"name":"Salobie Shardenze","address":"7 Bambis Rigi St, Tbilisi","district":"old_town","lat":41.6909,"lon":44.80824,"rating":null},{"id":658,"name":"Salobie Vakeshi","address":"Ilia Chavchavadze Avenue , N40, თბილისი","district":"tbilisi","lat":41.71091,"lon":44.75864,"rating":9.0},{"id":659,"name":"Sameo","address":"1 Vashlovani St, თბილისი","district":"old_town","lat":41.70608,"lon":44.78852,"rating":9.4},{"id":660,"name":"San Seven Bistro","address":"27 Tsurtsumia St, Tbilisi","district":"avlabari","lat":41.69196,"lon":44.82156,"rating":9.2},{"id":661,"name":"Santino ModCoffeeBar","address":"3/5 Galaktion Tabidze St, T&apos;bilisi, Tbilisi","district":"sololaki","lat":41.69228,"lon":44.801,"rating":9.2},{"id":662,"name":"Saramene Onimusha","address":"18 Anton Purtseladze St, Tbilisi","district":"old_town","lat":41.69764,"lon":44.80237,"rating":9.2},{"id":663,"name":"Sarke","address":"Sioni st. 13, თბილისი","district":"old_town","lat":41.6909,"lon":44.80739,"rating":6.8},{"id":664,"name":"Sataplia","address":"თამარ მეფის გამზირი #29, თბილისი","district":"old_town","lat":41.72037,"lon":44.79698,"rating":7.8},{"id":665,"name":"Satskhobi Tsintsadzeze","address":"81 Sulkhan Tsintsadze St, თბილისი","district":"saburtalo","lat":41.72154,"lon":44.75985,"rating":8.4},{"id":666,"name":"Saucer Burger","address":"45 Petre Kavtaradze, Tbilisi","district":"saburtalo","lat":41.72071,"lon":44.72117,"rating":9.2},{"id":667,"name":"Savora","address":"17 გიორგი ათონელი, თბილისი","district":"old_town","lat":41.69867,"lon":44.8034,"rating":9.4},{"id":668,"name":"Sbarro","address":"1 Petre Kavtaradze St, თბილისი","district":"saburtalo","lat":41.72454,"lon":44.73885,"rating":9.0},{"id":669,"name":"Scoopee by Chef Harbuz","address":"45a Merab Kostava St, Tbilisi","district":"vake","lat":41.71513,"lon":44.77928,"rating":9.0},{"id":670,"name":"Seafood Boil","address":"35 Zakaria Paliashvili Street, T&apos;bilisi, Tbilisi","district":"vake","lat":41.70861,"lon":44.76866,"rating":7.2},{"id":671,"name":"Seidabadi","address":"Gorgasali street 1, თბილისი","district":"old_town","lat":41.68978,"lon":44.80954,"rating":9.0},{"id":672,"name":"Sensation","address":"9 Navtlughi, თბილისი","district":"isani","lat":41.68506,"lon":44.83996,"rating":9.0},{"id":673,"name":"Sensei Sushi","address":"This is a virtual venue, Tbilisi","district":"didi_digomi","lat":41.6938,"lon":44.80152,"rating":9.4},{"id":674,"name":"Seoul Vera","address":"Barnovi St 41, Tbilisi","district":"old_town","lat":41.70426,"lon":44.78352,"rating":9.4},{"id":675,"name":"September","address":"Lado Asatiani St. 17, Tbilisi","district":"sololaki","lat":41.68977,"lon":44.80239,"rating":null},{"id":676,"name":"Shanddar Momo","address":"Nutsubidze street 41, თბილისი","district":"saburtalo","lat":41.72956,"lon":44.7484,"rating":9.0},{"id":677,"name":"Sharma's Kitchen","address":"31b Pekini Avenue, თბილისი","district":"saburtalo","lat":41.72721,"lon":44.76996,"rating":7.8},{"id":678,"name":"Shatre","address":"38 Shota Rustaveli avenue , თბილისი","district":"old_town","lat":41.7017,"lon":44.79389,"rating":8.4},{"id":679,"name":"Shaurma Bakery Cactus","address":"3 Vakhtang Chabukiani, Tbilisi","district":"saburtalo","lat":41.72398,"lon":44.77558,"rating":9.0},{"id":680,"name":"Shaurma Basa","address":"Vakhtang Chabukiani 6a, თბილისი","district":"saburtalo","lat":41.72353,"lon":44.7759,"rating":8.8},{"id":681,"name":"Shaurma Basa Varketili","address":"MVPC+H4 Tbilisi, თბილისი","district":"tbilisi","lat":41.68644,"lon":44.87031,"rating":8.4},{"id":682,"name":"Shaurma Club Avlabari","address":"Aleksandre Tsurtsumia St 16, Tbilisi","district":"avlabari","lat":41.69244,"lon":44.82373,"rating":8.4},{"id":683,"name":"Shaurma Club Dadiani","address":"135 Tsotne Dadiani St, თბილისი","district":"nadzaladevi","lat":41.73314,"lon":44.79733,"rating":8.4},{"id":684,"name":"Shaurma Club Tamar Mephe","address":"13 Queen Tamar Ave, Tbilisi","district":"old_town","lat":41.71886,"lon":44.79373,"rating":8.8},{"id":685,"name":"Shaurma Factory","address":"Bakhtrioni St , N9, თბილისი","district":"saburtalo","lat":41.72043,"lon":44.76649,"rating":8.6},{"id":686,"name":"Shaurma Point","address":"113a Dimitri Uznadze St, Tbilisi","district":"old_town","lat":41.71323,"lon":44.792,"rating":8.6},{"id":687,"name":"Shaurma Nakverchkhala","address":"57 Vazha Pshavela Ave, თბილისი","district":"saburtalo","lat":41.72511,"lon":44.73591,"rating":8.0},{"id":688,"name":"Shaurma Nakverchkhalze Dighmis Masivi","address":"QQ5C+9PV Tbilisi, Tbilisi","district":"tbilisi","lat":41.75849,"lon":44.7718,"rating":9.4},{"id":689,"name":"Shaurma Time","address":"შოთა რუსთაველის 2/4, Galleria Tbilisi, Tbilisi","district":"sololaki","lat":41.69488,"lon":44.79976,"rating":8.6},{"id":690,"name":"Shaurma XL Saburtalo","address":"6 Vakhtang Chabukiani St, თბილისი","district":"saburtalo","lat":41.72289,"lon":44.7744,"rating":8.8},{"id":691,"name":"Shaurma XL Varketili","address":"ჯავახეთის ქუჩა 26, Tbilisi","district":"samgori","lat":41.69268,"lon":44.87037,"rating":8.8},{"id":692,"name":"ShaurMafia","address":"Keteva dedopali ave , N65, Tbilisi","district":"tbilisi","lat":41.68705,"lon":44.83456,"rating":8.4},